address,Latitude,Longitude,"Accuracy Score","Accuracy Type",Number,Street,"Unit Type","Unit Number",City,State,County,Zip,Country,Source
"250 S Colonial Dr Alabaster, AL 35007",33.224319,-86.80438,1,rooftop,250,"S Colonial Dr",,,Alabaster,AL,"Shelby County",35007,US,Shelby
"520 Highway 119 Alabaster, AL 35007",33.238904,-86.817912,1,rooftop,520,"Hwy 119",,,Alabaster,AL,"Shelby County",35007,US,Shelby
"6181 Us Hwy 431 Albertville, AL 35950",34.265897,-86.193099,1,range_interpolation,6181,"US Hwy 431",,,Albertville,AL,"Marshall County",35950,US,"TIGER/Line® dataset from the US Census Bureau"
"113 3rd St, Se Aliceville, AL 35442",33.126926,-88.148561,1,range_interpolation,113,"3rd St SE",,,Aliceville,AL,"Pickens County",35442,US,"TIGER/Line® dataset from the US Census Bureau"
"1204 Dr. Mlk Expressway Andalusia, AL 36420",31.318773,-86.459683,0.6,street_center,,"Martin Luther King Jr Expy",,,Andalusia,AL,"Covington County",36420,US,"TIGER/Line® dataset from the US Census Bureau"
"1407 Quintard Ave. Anniston, AL 36201",33.662848,-85.826002,1,rooftop,1407,"Quintard Ave",,,Anniston,AL,"Calhoun County",36201,US,Calhoun
"1404 Golden Springs Rd. Anniston, AL 36207",33.625486,-85.786154,1,range_interpolation,1404,"Golden Springs Rd",,,Anniston,AL,"Calhoun County",36207,US,"TIGER/Line® dataset from the US Census Bureau"
"1204 N. Brindlee Mountain Pkwy. Arab, AL 35016",34.338143,-86.502556,1,rooftop,1204,"Brindlee Mountain Pkwy N",,,Arab,AL,"Marshall County",35016,US,Marshall
"215 Hwy 31 South Athens, AL 35611",34.797194,-86.953006,0.9,rooftop,215,"U S Hwy 31 S",,,Athens,AL,"Limestone County",35613,US,Limestone
"315 Third Street Nw Attalla, AL 35954",34.020522,-86.089392,1,rooftop,315,"3rd St NW",,,Attalla,AL,"Etowah County",35954,US,Etowah
"333 S College St Auburn, AL 36830",32.600254,-85.481481,1,rooftop,333,"S College St",,,Auburn,AL,"Lee County",36830,US,"City of Auburn"
"1888 Ogletree Road Auburn, AL 36830",32.58396,-85.438655,1,rooftop,1888,"Ogletree Rd",,,Auburn,AL,"Lee County",36830,US,"City of Auburn"
"770 East Glenn Avenue Auburn, AL 36830",32.608277,-85.465494,1,rooftop,770,"E Glenn Ave",,,Auburn,AL,"Lee County",36830,US,"City of Auburn"
"1498 Opelika Rd Auburn, AL 36830",32.623307,-85.448867,1,rooftop,1498,"Opelika Rd",,,Auburn,AL,"Lee County",36830,US,"City of Auburn"
"208 Mcmeans Ave. Bay Minette, AL 36507",30.880371,-87.784479,1,rooftop,208,"McMeans Ave",,,"Bay Minette",AL,"Baldwin County",36507,US,Baldwin
"12900 N. Wintzell Ave. Bayou La Batre, AL 36509",30.417579,-88.244426,0.9,range_interpolation,12900,"Wintzell Ave",,,"Bayou La Batre",AL,"Mobile County",36509,US,"TIGER/Line® dataset from the US Census Bureau"
"4889 Promenade Pkwy Bessemer, AL 35022",33.33437,-86.989837,1,rooftop,4889,"Promenade Pkwy",,,Bessemer,AL,"Jefferson County",35022,US,Jefferson
"901 9th Avenue, N Bessemer, AL 35020",33.392918,-86.96407,1,rooftop,901,"5th Ave N",,,Bessemer,AL,"Jefferson County",35020,US,Jefferson
"2901 Morgan Rd. Bessemer, AL 35022",33.336451,-86.916615,1,rooftop,2901,"Morgan Rd",,,Bessemer,AL,"Jefferson County",35022,US,Jefferson
"4616 Highway 280 Birmingham, AL 35242",33.42542,-86.712376,1,rooftop,4616,"Hwy 280",,,Birmingham,AL,"Shelby County",35242,US,Shelby
"1654 Gadsden Hwy Birmingham, AL 35235",33.605735,-86.637376,1,rooftop,1654,"Gadsden Hwy",,,Birmingham,AL,"Jefferson County",35235,US,Jefferson
"5561 Grove Blvd Birmingham, AL 35226",33.361835,-86.852846,1,rooftop,5561,"Grove Blvd",,,Hoover,AL,"Jefferson County",35226,US,Jefferson
"220 Gadsden Highway, Off I-59 At Roebuck Parkway Birmingham, AL 35235",33.589096,-86.696602,1,rooftop,220,"Gadsden Hwy",,"I 59",Birmingham,AL,"Jefferson County",35235,US,Jefferson
"7501 1st Avenue N. Birmingham, AL 35206",33.559241,-86.730326,1,rooftop,7501,"1st Ave N",,,Birmingham,AL,"Jefferson County",35206,US,Jefferson
"105 Inverness Plaza Hwy 280 Birmingham, AL 35242",33.419344,-86.695601,1,rooftop,105,"Inverness Plz",,,Birmingham,AL,"Shelby County",35242,US,Shelby
"632 Tuscaloosa Avenue Birmingham, AL 35211",33.499664,-86.843301,1,range_interpolation,632,"Tuscaloosa Ave",,,Birmingham,AL,"Jefferson County",35211,US,"TIGER/Line® dataset from the US Census Bureau"
"1431 11th Avenue So. Birmingham, AL 35205",33.496754,-86.803744,0.9,rooftop,1431,"11th Ave S",,,Birmingham,AL,"Jefferson County",35205,US,Jefferson
"2228 Bessemer Road Birmingham, AL 35208",33.49632,-86.877815,1,range_interpolation,2228,"Bessemer Rd",,,Birmingham,AL,"Jefferson County",35208,US,"TIGER/Line® dataset from the US Census Bureau"
"1675 Montclair Rd. Birmingham, AL 35210",33.526367,-86.718763,1,rooftop,1675,"Montclair Rd",,,Irondale,AL,"Jefferson County",35210,US,Jefferson
"5705 Chalkville Rd. Birmingham, AL 35235",33.648218,-86.634065,1,rooftop,5705,"Chalkville Rd",,,Birmingham,AL,"Jefferson County",35235,US,Jefferson
"3303 Clairmont Avenue S Birmingham, AL 35222",33.51256,-86.780161,1,range_interpolation,3303,"Clairmont Ave S",,,Birmingham,AL,"Jefferson County",35222,US,"TIGER/Line® dataset from the US Census Bureau"
"8370 Hwy 31 Calera, AL 35040",33.101513,-86.753746,1,rooftop,8370,"Hwy 31",,,Calera,AL,"Shelby County",35040,US,Shelby
"7 Camden Bypass Camden, AL 36726",32.001664,-87.284402,1,range_interpolation,7,"Camden Byp",,,Camden,AL,"Wilcox County",36726,US,"TIGER/Line® dataset from the US Census Bureau"
"2000 Center Point Pkwy Center Point, AL 35215",33.638689,-86.684118,1,rooftop,2000,"Center Point Pkwy",,,Birmingham,AL,"Jefferson County",35215,US,Jefferson
"101 Chestnut Bypass Centre, AL 35960",34.110859,-85.590218,0.33,place,,,,,Centre,AL,"Cherokee County",35960,US,"TIGER/Line® dataset from the US Census Bureau"
"155 Birmingham Road Suite 114 Centreville, AL 35042",32.947185,-87.14401,0.9,range_interpolation,155,"Birmingham Rd",Ste,114,Centreville,AL,"Bibb County",35042,US,"TIGER/Line® dataset from the US Census Bureau"
"32815 Us Hwy 280 Childersburg, AL 35044",33.276212,-86.358461,1,range_interpolation,32815,"US Hwy 280",,,Childersburg,AL,"Talladega County",35044,US,"TIGER/Line® dataset from the US Census Bureau"
"19215 North 3rd St. Citronelle, AL 36522",31.099982,-88.238214,1,range_interpolation,19215,"N 3rd St",,,Citronelle,AL,"Mobile County",36522,US,"TIGER/Line® dataset from the US Census Bureau"
"1105 7th St., North Clanton, AL 35045",32.823948,-86.618207,0.76,range_interpolation,1105,"7th St S",,,Clanton,AL,"Chilton County",35045,US,"TIGER/Line® dataset from the US Census Bureau"
"227 West College St. Columbiana, AL 35051",33.17947,-86.614644,1,rooftop,227,"W College St",,,Columbiana,AL,"Shelby County",35051,US,Shelby
"1906 Cherokee Ave Sw Cullman, AL 35055",34.150845,-86.844389,1,rooftop,1906,"Cherokee Ave SW",,,Cullman,AL,"Cullman County",35055,US,Cullman
"610 2nd Avenue Nw Cullman, AL 35055",34.181988,-86.847178,1,rooftop,610,"2nd Ave NW",,,Cullman,AL,"Cullman County",35055,US,Cullman
"1698 Us Highway 98 Daphne, AL 36526",30.60244,-87.896268,1,rooftop,1698,"US Hwy 98",,,Daphne,AL,"Baldwin County",36526,US,Baldwin
"27040 Hwy 98 Daphne, AL 36526",30.619399,-87.904392,0.82,nearest_rooftop_match,27080,"US Hwy 98",,,Daphne,AL,"Baldwin County",36526,US,Baldwin
"1235 Point Mallard Parkway Se Decatur, AL 35601",34.560601,-86.970894,1,rooftop,1235,"Point Mallard Pkwy",,,Decatur,AL,"Morgan County",35601,US,Morgan
"812 Beltline Rd Decatur, AL 35601",34.560774,-86.999678,0.9,rooftop,812,"Beltline Rd SW",,,Decatur,AL,"Morgan County",35601,US,Morgan
"312 Hwy 80 East Demopolis, AL 36732",32.50162,-87.841946,0.62,nearest_rooftop_match,400,"W Hwy 80",,,Demopolis,AL,"Marengo County",36732,US,Marengo
"4601 Montgomery Hwy Ste 300 Dothan, AL 36303",31.266519,-85.446391,1,rooftop,4601,"Montgomery Hwy",Ste,300,Dothan,AL,"Houston County",36303,US,Houston
"1955 East Main Street Dothan, AL 36301",31.217218,-85.361828,1,rooftop,1955,"E Main St",,,Dothan,AL,"Houston County",36301,US,Houston
"1270 West Main Street Dothan, AL 36301",31.226812,-85.408528,1,range_interpolation,1270,"W Main St",,,Dothan,AL,"Houston County",36301,US,"TIGER/Line® dataset from the US Census Bureau"
"5730 W. Main St. Dothan, AL 36305",31.240798,-85.480258,1,rooftop,5730,"W Main St",,,Dothan,AL,"Houston County",36305,US,Houston
"850 Boll Weevil Circle Enterprise, AL 36330",31.334655,-85.858276,1,range_interpolation,850,"Boll Weevil Cir",,,Enterprise,AL,"Coffee County",36330,US,"TIGER/Line® dataset from the US Census Bureau"
"210 W Front St Evergreen, AL 36401",31.437609,-86.951412,0.9,range_interpolation,210,"W Front St",,,Evergreen,AL,"Conecuh County",36401,US,"TIGER/Line® dataset from the US Census Bureau"
"51 S Greeno Rd. Fairhope, AL 36532",30.524381,-87.886759,0.8,rooftop,51,"Greeno Rd N",,,Fairhope,AL,"Baldwin County",36532,US,Baldwin
"372 Cox Creek Pkwy Florence, AL 35630",34.841472,-87.634692,1,rooftop,372,"Cox Creek Pkwy",,,Florence,AL,"Lauderdale County",35630,US,Lauderdale
"1501 Florence Blvd Florence, AL 35630",34.820726,-87.655756,1,rooftop,1501,"Florence Blvd",,,Florence,AL,"Lauderdale County",35630,US,Lauderdale
"1002 Cox Creek Pkwy. Florence, AL 35633",34.840165,-87.688776,1,rooftop,1002,"Cox Creek Pkwy",,,Florence,AL,"Lauderdale County",35633,US,Lauderdale
"1300 South Mckenzie St Foley, AL 36535",30.391599,-87.684569,1,rooftop,1300,"McKenzie St S",,,Foley,AL,"Baldwin County",36535,US,Baldwin
"3489 Lowery Pkwy Fultondale, AL 35068",33.606139,-86.806038,1,rooftop,3489,"Lowery Pkwy",,,Fultondale,AL,"Jefferson County",35068,US,Jefferson
"1535 Decatur Hwy., Corner Of Walkers Chapel Road Fultondale, AL 35068",33.609574,-86.796152,1,rooftop,1535,"Decatur Hwy",,,Fultondale,AL,"Jefferson County",35068,US,Jefferson
"806 Hoke St., Corner Of Meighan Boulevard Gadsden, AL 35903",34.003047,-85.96961,1,rooftop,806,"Hoke St",,,Gadsden,AL,"Etowah County",35903,US,Etowah
"2608 W. Meighan Blvd Gadsden, AL 35904",34.022436,-86.044992,1,rooftop,2608,"W Meighan Blvd",,,Gadsden,AL,"Etowah County",35904,US,Etowah
"205 Fieldstown Rd, Gardendale, AL 35071",33.651339,-86.811947,1,rooftop,205,"Fieldstown Rd",,,Gardendale,AL,"Jefferson County",35071,US,Jefferson
"536 Hudson Dr., Po Box 653 Gordo, AL 35466",33.051396,-88.28708,0.56,street_center,,"Hudson Dr",,653,Aliceville,AL,"Pickens County",35442,US,"TIGER/Line® dataset from the US Census Bureau"
"10115 Grand Bay Wilmer Rd. South Grand Bay, AL 36541",30.48118,-88.339859,0.95,range_interpolation,10115,"Grand Bay Wilmer Rd",,,"Grand Bay",AL,"Mobile County",36541,US,"TIGER/Line® dataset from the US Census Bureau"
"675 Tuscaloosa Street Greensboro, AL 36744",32.710815,-87.595583,0.6,street_center,,"State Rte 69",,,Greensboro,AL,"Hale County",36744,US,"TIGER/Line® dataset from the US Census Bureau"
"879 Fort Dale Rd. Greenville, AL 36037",31.796729,-86.596233,0.33,place,,,,,Greenville,AL,"Butler County",36037,US,"TIGER/Line® dataset from the US Census Bureau"
"3820 Gulf Shores Pkwy Gulf Shores, AL 36542",30.303829,-87.680472,1,rooftop,3820,"Gulf Shores Pkwy",,,"Gulf Shores",AL,"Baldwin County",36542,US,Baldwin
"1445 Gunter Avenue Guntersville, AL 35976",34.345048,-86.304165,1,rooftop,1445,"Gunter Ave",,,Guntersville,AL,"Marshall County",35976,US,Marshall
"1901 11th Ave. Haleyville, AL 35565",34.217422,-87.620821,1,range_interpolation,1901,"11th Ave",,,Haleyville,AL,"Winston County",35565,US,"TIGER/Line® dataset from the US Census Bureau"
"303 North Main St. Hanceville, AL 35077",34.05618,-86.765438,1,range_interpolation,303,"State Rte 3",,,Hanceville,AL,"Cullman County",35077,US,"TIGER/Line® dataset from the US Census Bureau"
"240 Hwy 31 Southwest Suite #11 Hartselle, AL 35640",34.440665,-86.940699,1,rooftop,240,"Hwy 31 S",Ste,11,Hartselle,AL,"Morgan County",35640,US,Morgan
"5859 Highway 53 Harvest, AL 35749",34.845457,-86.712505,1,rooftop,5859,"AL 53 Hwy",,,Harvest,AL,"Madison County",35749,US,Madison
"4685 Hwy 17 Helena, AL 35080",33.280843,-86.851829,1,rooftop,4685,"Hwy 17",,,Helena,AL,"Shelby County",35080,US,Shelby
"531 Brookwood Village Homewood, AL 35209",33.467051,-86.775222,1,rooftop,531,"Brookwood Vlg",,,Birmingham,AL,"Jefferson County",35209,US,Jefferson
"418 West Valley Ave Homewood, AL 35209",33.471161,-86.825179,1,rooftop,418,"W Valley Ave",,,Birmingham,AL,"Jefferson County",35209,US,Jefferson
"3030 Independence Dr. Homewood, AL 35209",33.477935,-86.787742,1,rooftop,3030,"Independence Dr",,,Birmingham,AL,"Jefferson County",35209,US,Jefferson
"5400 Hwy 280 Hoover, AL 35242",33.418312,-86.671429,1,rooftop,5400,"Hwy 280",,,Hoover,AL,"Shelby County",35242,US,Shelby
"2301 John Hawkins Pkwy Hoover, AL 35244",33.349851,-86.868184,0.87,rooftop,2301,"John Hawkins Pkwy",,,Birmingham,AL,"Jefferson County",35226,US,Jefferson
"1881 Chace Rd. Hoover, AL 35244",33.369851,-86.800147,0.8,rooftop,1881,"Chace Dr",,,Hoover,AL,"Jefferson County",35244,US,Jefferson
"2201 Tyler Rd. Hoover, AL 35226",33.416483,-86.842046,1,rooftop,2201,"Tyler Rd",,,Hoover,AL,"Jefferson County",35226,US,Jefferson
"3022 Allison Bonnett Dr Hueytown, AL 35023",33.45189,-86.978431,0.79,nearest_rooftop_match,3016,"Allison Bonnett Memori Dr",,,Bessemer,AL,"Jefferson County",35023,US,Jefferson
"11030 South Memorial Pkwy. Huntsville, AL 35803",34.630057,-86.56792,1,rooftop,11030,"Memorial Pkwy SW",,,Huntsville,AL,"Madison County",35803,US,Madison
"6275 University Dr Nw Huntsville, AL 35806",34.744933,-86.683543,1,rooftop,6275,"University Dr NW",,,Huntsville,AL,"Madison County",35806,US,Madison
"2750 Carl T Jones Dr Se Ste 7 Huntsville, AL 35802",34.6733,-86.542409,1,rooftop,2750,"Carl T Jones Dr SE",Ste,7,Huntsville,AL,"Madison County",35802,US,"City of Huntsville"
"100 Providence Main St., #g Huntsville, AL 35806",34.750033,-86.694089,0.9,rooftop,100,"Providence Main St NW",Ste,G,Huntsville,AL,"Madison County",35806,US,"City of Huntsville"
"930 Winchester Rd. Huntsville, AL 35811",34.797364,-86.536828,0.9,rooftop,930,"Winchester Rd NE",,,Huntsville,AL,"Madison County",35811,US,Madison
"2001 Cecil Ashburn Drive Se Huntsville, AL 35802",34.672527,-86.538574,1,rooftop,2001,"Cecil Ashburn Dr SE",,,Huntsville,AL,"Madison County",35802,US,Madison
"2212 Whitesburg Dr Huntsville, AL 35801",34.716604,-86.577927,0.9,rooftop,2212,"Whitesburg Dr SW",,,Huntsville,AL,"Madison County",35801,US,Madison
"2525 Oakwood Ave, Northwest Huntsville, AL 35810",34.748875,-86.609306,1,rooftop,2525,"Oakwood Ave NW",,,Huntsville,AL,"Madison County",35810,US,"City of Huntsville"
"2210 Winchester Rd. Huntsville, AL 35811",34.816951,-86.492157,0.9,rooftop,2210,"Winchester Rd NE",,,Huntsville,AL,"Madison County",35811,US,Madison
"813 College Ave. Jackson, AL 36545",31.519504,-87.895547,0.9,range_interpolation,813,"College Ave",,,Jackson,AL,"Clarke County",36545,US,"TIGER/Line® dataset from the US Census Bureau"
"1001 Pelham Rd., South Jacksonville, AL 36265",33.803581,-85.762087,1,rooftop,1001,"Pelham Rd S",,,Jacksonville,AL,"Calhoun County",36265,US,Calhoun
"101 N Airport Rd., North Jasper, AL 35504",33.854273,-87.265122,1,range_interpolation,101,"N Airport Rd",,,Jasper,AL,"Walker County",35504,US,"TIGER/Line® dataset from the US Census Bureau"
"10 Veterans Memorial Parkway, Corner Of Highway 29 And 50 Lanett, AL 36863",32.855333,-85.192279,1,range_interpolation,10,"Veterans Memorial Pkwy",,50,Lanett,AL,"Chambers County",36863,US,"TIGER/Line® dataset from the US Census Bureau"
"7596 Parkway Dr., Se Leeds, AL 35094",33.547338,-86.551228,0.95,rooftop,7596,"Parkway Dr",,,Leeds,AL,"Jefferson County",35094,US,Jefferson
"8207 Highway 72 W Madison, AL 35758",34.750474,-86.75965,0.9,range_interpolation,8207,"US Hwy 72",,,Madison,AL,"Madison County",35758,US,"TIGER/Line® dataset from the US Census Bureau"
"8503 Old Madison Pike Madison, AL 35758",34.706306,-86.741424,0.7,rooftop,8503,"Old Madison Pke",,,Madison,AL,"Madison County",35758,US,Madison
"8470 Hwy 72 West Madison, AL 35758",34.74892,-86.768308,1,range_interpolation,8470,"US Hwy 72",,,Madison,AL,"Madison County",35758,US,"TIGER/Line® dataset from the US Census Bureau"
"4736 Eastern Valley Rd. Mccalla, AL 35111",33.330427,-86.998938,1,rooftop,4736,"Eastern Valley Rd",,,"Mc Calla",AL,"Jefferson County",35111,US,Jefferson
"12275 Hwy 231 431n Meridianville, AL 35759",34.870099,-86.571016,0.9,range_interpolation,12275,"US Hwy 231",,431N,Meridianville,AL,"Madison County",35759,US,"TIGER/Line® dataset from the US Census Bureau"
"604 Bessemer Super Hwy. Midfield, AL 35228",33.464209,-86.911479,1,rooftop,604,"Bessemer Super Hwy",,,Birmingham,AL,"Jefferson County",35228,US,Jefferson
"3680 Hwy 14 Millbrook, AL 36054",32.515834,-86.376088,1,rooftop,3680,"Hwy 14",,,Millbrook,AL,"Elmore County",36054,US,Elmore
"4645 Airport Blvd Mobile, AL 36608",30.675356,-88.169619,1,rooftop,4645,"Airport Blvd",,,Mobile,AL,"Mobile County",36608,US,"City of Mobile"
"3201 Airport Blvd., Unit 1 Mobile, AL 36606",30.670987,-88.120523,1,rooftop,3201,"Airport Blvd",Unit,F1,Mobile,AL,"Mobile County",36606,US,"City of Mobile"
"790 Schillinger Rd S Mobile, AL 36695",30.67401,-88.228748,1,rooftop,790,"Schillinger Rd S",,,Mobile,AL,"Mobile County",36695,US,"City of Mobile"
"3932 Cottage Hill Rd. Mobile, AL 36609",30.653755,-88.139409,1,rooftop,3932,"Cottage Hill Rd",,,Mobile,AL,"Mobile County",36609,US,"City of Mobile"
"7081 Airport Rd Mobile, AL 36608",30.685096,-88.207016,1,rooftop,7081,"Airport Blvd",,,Mobile,AL,"Mobile County",36608,US,"City of Mobile"
"900 Government St. Mobile, AL 36604",30.686496,-88.054428,1,rooftop,900,"Government St",,,Mobile,AL,"Mobile County",36604,US,"City of Mobile"
"4881 Schillinger Rd. Mobile, AL 36619",30.58944,-88.224395,0.9,rooftop,4881,"Schillinger Rd S",,,Mobile,AL,"Mobile County",36619,US,"City of Mobile"
"2280 Mlk Blvd. Mobile, AL 36610",30.717433,-88.082224,0.99,rooftop,2280,"Martin Luther King Jr Ave",,,Mobile,AL,"Mobile County",36617,US,"City of Mobile"
"4453 Old Shell Rd., Corner Of Mcgregeor Mobile, AL 36608",30.696167,-88.144704,1,rooftop,4453,"Old Shell Rd",,,Mobile,AL,"Mobile County",36608,US,"City of Mobile"
"2550 Dauphin St. Mobile, AL 36606",30.688178,-88.100741,1,rooftop,2550,"Dauphin St",,,Mobile,AL,"Mobile County",36606,US,"City of Mobile"
"3100 Dauphin Island Pkwy Mobile, AL 36605",30.608048,-88.075865,1,rooftop,3100,"Dauphin Island Pkwy",,,Mobile,AL,"Mobile County",36605,US,"City of Mobile"
"1401 Hillcrest Rd. Mobile, AL 36695",30.660687,-88.190015,1,rooftop,1401,"Hillcrest Rd",,,Mobile,AL,"Mobile County",36695,US,"City of Mobile"
"7101 Cottage Hill Rd Mobile, AL 36695",30.63914,-88.20846,1,rooftop,7101,"Cottage Hill Rd",,,Mobile,AL,"Mobile County",36695,US,"City of Mobile"
"700 Main St. Montevallo, AL 35115",33.100176,-86.862403,1,rooftop,700,"Main St",,,Montevallo,AL,"Shelby County",35115,US,Shelby
"2576 Berryhill Rd Montgomery, AL 36117",32.360524,-86.160024,1,rooftop,2576,"Berryhill Rd",,,Montgomery,AL,"Montgomery County",36117,US,Montgomery
"6891 Vaughn Road Montgomery, AL 36116",32.340141,-86.196382,1,rooftop,6891,"Vaughn Rd",,,Montgomery,AL,"Montgomery County",36116,US,Montgomery
"3190 Zelda Rd. Montgomery, AL 36106",32.352849,-86.264089,1,rooftop,3190,"Zelda Rd",,,Montgomery,AL,"Montgomery County",36106,US,Montgomery
"6990 Atlanta Hwy., And Taylor Road Montgomery, AL 36117",32.382003,-86.174127,1,rooftop,6990,"Atlanta Hwy",,,Montgomery,AL,"Montgomery County",36117,US,Montgomery
"3465 Atlanta Hwy., Coliseum Boulevard Montgomery, AL 36109",32.38601,-86.256891,1,rooftop,3465,"Atlanta Hwy",,,Montgomery,AL,"Montgomery County",36109,US,Montgomery
"3000 Rosa L. Parks Ave. Montgomery, AL 36105",32.351269,-86.317118,1,rooftop,3000,"Rosa L Parks Ave",,,Montgomery,AL,"Montgomery County",36105,US,Montgomery
"4240 Narrow Lane Road Montgomery, AL 36111",32.327536,-86.282533,1,rooftop,4240,"Narrow Lane Rd",,,Montgomery,AL,"Montgomery County",36111,US,Montgomery
"4790 Mobile Hwy Montgomery, AL 36108",32.308451,-86.350331,1,rooftop,4790,"Mobile Hwy",,,Montgomery,AL,"Montgomery County",36108,US,Montgomery
"1525 Forest Avenue Montgomery, AL 36106",32.363901,-86.285836,1,rooftop,1525,"Forest Ave",,,Montgomery,AL,"Montgomery County",36106,US,Montgomery
"55 Ray Thorington Rd. Montgomery, AL 36117",32.338068,-86.161618,1,rooftop,55,"Ray Thorington Rd",,,Montgomery,AL,"Montgomery County",36117,US,Montgomery
"2828 Moody Parkway Moody, AL 35004",33.590501,-86.495151,1,rooftop,2828,"Moody Pkwy",,,Moody,AL,"St. Clair County",35004,US,"St Clair"
"11648 Al Hwy. 157 Moulton, AL 35650",34.475157,-87.26945,0.6,street_center,,"Al Hwy 157",,,Moulton,AL,"Lawrence County",35650,US,"TIGER/Line® dataset from the US Census Bureau"
"93 Euclid Avenue Mountain Brook, AL 35213",33.50262,-86.757362,1,rooftop,93,"Euclid Ave",,,"Mountain Brk",AL,"Jefferson County",35213,US,Jefferson
"1715 Woodward Ave., Muscle Shoals, AL 35661",34.74535,-87.666946,1,rooftop,1715,"Woodward Ave",,,"Muscle Shoals",AL,"Colbert County",35661,US,Colbert
"4280 Mitt Lary Rd. Northport, AL 35475",33.227356,-87.63988,0.6,street_center,,"Mitt Lary Rd",,,Northport,AL,"Tuscaloosa County",35476,US,"TIGER/Line® dataset from the US Census Bureau"
"1910 Mcfarland Boulevard Northport, AL 35476",33.239749,-87.57715,0.9,rooftop,1910,"McFarland Blvd",,,Tuscaloosa,AL,"Tuscaloosa County",35406,US,Tuscaloosa
"602 1st Avenue East Oneonta, AL 35121",33.949262,-86.468816,0.6,street_center,,"1st Ave E",,,Oneonta,AL,"Blount County",35121,US,"TIGER/Line® dataset from the US Census Bureau"
"2640 Enterprise Dr Opelika, AL 36801",32.622199,-85.409776,0.6,street_center,,"Enterprise Dr",,,Opelika,AL,"Lee County",36801,US,"TIGER/Line® dataset from the US Census Bureau"
"1997 Pepperell Pkwy. Opelika, AL 36801",32.637942,-85.403874,1,range_interpolation,1997,"Pepperell Pkwy",,,Opelika,AL,"Lee County",36801,US,"TIGER/Line® dataset from the US Census Bureau"
"25761 Perdido Beach Blvd. Orange Beach, AL 36561",30.269339,-87.586745,0.9,range_interpolation,25761,"Perdido Beach Blvd",,,"Orange Beach",AL,"Baldwin County",36561,US,"TIGER/Line® dataset from the US Census Bureau"
"825 Quintard Dr. Oxford, AL 36203",33.6108,-85.826687,1,rooftop,825,"Quintard Dr",,,Oxford,AL,"Calhoun County",36203,US,Calhoun
"400 Oxford Exchange Blvd Oxford, AL 36203",33.610453,-85.783992,0.8,nearest_rooftop_match,401,"Oxford Exchange Blvd",,,Oxford,AL,"Calhoun County",36203,US,Calhoun
"176 Andrews Ave. Ozark, AL 36360",31.453234,-85.649691,0.6,street_center,,"Andrews Ave",,,Ozark,AL,"Dale County",36360,US,"TIGER/Line® dataset from the US Census Bureau"
"100 Huntley Pkwy. Pelham, AL 35124",33.27742,-86.794909,1,rooftop,100,"Huntley Pkwy",,,Pelham,AL,"Shelby County",35124,US,Shelby
"2738 U.s. Highway 31 South Pelham, AL 35124",33.312821,-86.802445,1,rooftop,2738,"Pelham Pkwy",,,Pelham,AL,"Shelby County",35124,US,Shelby
"118 Comer Avenue Pell City, AL 35125",33.589134,-86.281544,1,rooftop,118,"Comer Ave",,,"Pell City",AL,"St. Clair County",35125,US,"St Clair"
"5405 Summerville Rd Phenix City, AL 36867",32.520048,-85.028802,1,range_interpolation,5405,"Summerville Rd",,,"Phenix City",AL,"Lee County",36867,US,"TIGER/Line® dataset from the US Census Bureau"
"2514 Crawford Road Phenix City, AL 36867",32.4752,-85.026983,1,range_interpolation,2514,"Crawford Rd",,,"Phenix City",AL,"Russell County",36867,US,"TIGER/Line® dataset from the US Census Bureau"
"145 U.s. Hwy. 278 East By-pass Piedmont, AL 36272",33.932631,-85.611465,1,rooftop,145,"US Hwy 278th Byp E",,,Piedmont,AL,"Calhoun County",36272,US,Calhoun
"9505 Vaughn Road, Pike Road Pike Road, AL 36064",32.347012,-86.094031,1,range_interpolation,9505,"Vaughn Rd",,,"Pike Road",AL,"Montgomery County",36064,US,"TIGER/Line® dataset from the US Census Bureau"
"6665 Hwy 75 Pinson, AL 35126",33.696944,-86.679226,1,rooftop,6665,"Highway 75",,,Pinson,AL,"Jefferson County",35126,US,Jefferson
"108 Park Rd, Corner Of Pleasant Grove Road Pleasant Grove, AL 35127",33.491296,-86.959098,1,rooftop,108,"Park Rd",,,"Pleasant Grove",AL,"Jefferson County",35127,US,Jefferson
"2754 Legends Pkwy Prattville, AL 36066",32.457423,-86.395983,1,rooftop,2754,"Legends Pkwy",,,Prattville,AL,"Elmore County",36066,US,Elmore
"708 E. Main St. Prattville, AL 36067",32.459901,-86.456402,1,range_interpolation,708,"E Main St",,,Prattville,AL,"Autauga County",36067,US,"TIGER/Line® dataset from the US Census Bureau"
"1904 Cobbs Ford Rd. Prattville, AL 36066",32.46034,-86.4181,1,range_interpolation,1904,"Cobbs Ford Rd",,,Prattville,AL,"Autauga County",36066,US,"TIGER/Line® dataset from the US Census Bureau"
"3403 Rainbow Dr. Rainbow City, AL 35906",33.957215,-86.039979,1,rooftop,3403,"Rainbow Dr",,,"Rainbow City",AL,"Etowah County",35906,US,Etowah
"21975 Hwy 59 Robertsdale, AL 36567",30.545668,-87.708504,1,range_interpolation,21975,"State Rte 59",,,Robertsdale,AL,"Baldwin County",36567,US,"TIGER/Line® dataset from the US Census Bureau"
"14695 Hwy 43 Russellville, AL 35653",34.477036,-87.743615,0.6,street_center,,"Andrew Jackson Hwy",,,Russellville,AL,"Franklin County",35653,US,"TIGER/Line® dataset from the US Census Bureau"
"24 Saraland Blvd., N, Saraland, AL 36571",30.822349,-88.069913,1,range_interpolation,24,"Saraland Blvd N",,,Saraland,AL,"Mobile County",36571,US,"TIGER/Line® dataset from the US Census Bureau"
"801 S. Broad St. Scottsboro, AL 35768",34.666042,-86.034668,1,rooftop,801,"S Broad St",,,Scottsboro,AL,"Jackson County",35768,US,Jackson
"520 Highland Ave Selma, AL 36701",32.431408,-87.026716,0.6,street_center,,"Highland Ave",,,Selma,AL,"Dallas County",36701,US,"TIGER/Line® dataset from the US Census Bureau"
"9151 Moffett Road Semmes, AL 36575",30.778169,-88.258287,1,rooftop,9151,"Moffett Rd",,,Semmes,AL,"Mobile County",36575,US,"City of Mobile"
"9917-a Spanish Fort Blvd. Spanish Fort, AL 36527",30.676611,-87.854238,0.9,range_interpolation,9917,"Spanish Fort Blvd",,,Daphne,AL,"Baldwin County",36527,US,"TIGER/Line® dataset from the US Census Bureau"
"2 N. Broadway Ave. Sylacauga, AL 35150",33.167618,-86.250228,0.95,rooftop,2,"N Broadway Dr",,,Sylacauga,AL,"Talladega County",35150,US,Talladega
"410 East Battle St. Talladega, AL 35160",33.435734,-86.096617,0.9,range_interpolation,410,"E Battle St",,,Talladega,AL,"Talladega County",35160,US,"TIGER/Line® dataset from the US Census Bureau"
"10 Gilmer Ave. Tallassee, AL 36078",32.537552,-85.898679,1,rooftop,10,"Gilmer Ave",,,Tallassee,AL,"Elmore County",36078,US,Elmore
"100 Us Hwy 231 Troy, AL 36081",31.840842,-85.993808,0.9,range_interpolation,100,"US Hwy 231",,,Troy,AL,"Pike County",36081,US,"TIGER/Line® dataset from the US Census Bureau"
"315 Main St. Trussville, AL 35173",33.618105,-86.611638,1,rooftop,315,"Main St",,,Trussville,AL,"Jefferson County",35173,US,Jefferson
"1218 University Blvd. Tuscaloosa, AL 35401",33.211135,-87.554057,1,rooftop,1218,"University Blvd",,,Tuscaloosa,AL,"Tuscaloosa County",35401,US,Tuscaloosa
"1901 13th Ave E Tuscaloosa, AL 35404",33.191981,-87.518201,1,rooftop,1901,"13th Ave E",,,Tuscaloosa,AL,"Tuscaloosa County",35404,US,Tuscaloosa
"8700 Hwy 69 South Tuscaloosa, AL 35405",33.130939,-87.547902,0.95,range_interpolation,8700,"State Rte 69",,,Tuscaloosa,AL,"Tuscaloosa County",35405,US,"TIGER/Line® dataset from the US Census Bureau"
"4260 University Blvd East Tuscaloosa, AL 35404",33.197806,-87.479126,1,rooftop,4260,"University Blvd E",,,Tuscaloosa,AL,"Tuscaloosa County",35404,US,Tuscaloosa
"808 Veterans Memorial Drive Tuscaloosa, AL 35404",33.197705,-87.524978,1,rooftop,808,"Veterans Memorial Pkwy",,,Tuscaloosa,AL,"Tuscaloosa County",35404,US,Tuscaloosa
"3302 15th Street Tuscaloosa, AL 35401",33.201107,-87.578808,1,rooftop,3302,"15th St",,,Tuscaloosa,AL,"Tuscaloosa County",35401,US,Tuscaloosa
"4715 Rice Mine Rd. Ne Tuscaloosa, AL 35406",33.26087,-87.514811,1,rooftop,4715,"Rice Mine Rd NE",,,Tuscaloosa,AL,"Tuscaloosa County",35406,US,Tuscaloosa
"202 W. Martin Luther King Hwy. Tuskegee, AL 36083",32.423115,-85.691783,1,range_interpolation,202,"W Martin Luther King Jr Hwy",,,Tuskegee,AL,"Macon County",36083,US,"TIGER/Line® dataset from the US Census Bureau"
"101 Baskin St., North Union Springs, AL 36089",32.143469,-85.719053,1,range_interpolation,101,"Baskin St",,,"Union Springs",AL,"Bullock County",36089,US,"TIGER/Line® dataset from the US Census Bureau"
"2480 Rocky Ridge Road Vestavia, AL 35243",33.422547,-86.772905,1,rooftop,2480,"Rocky Ridge Rd",,,Vestavia,AL,"Jefferson County",35243,US,Jefferson
"4197 Crosshaven Dr. Vestavia Hills, AL 35243",33.454576,-86.730238,1,rooftop,4197,"Crosshaven Dr",,,Vestavia,AL,"Jefferson County",35243,US,Jefferson
"1100 Montgomery Hwy. Vestavia Hills, AL 35216",33.437057,-86.789334,1,rooftop,1100,"Montgomery Hwy",,,"Vestavia Hills",AL,"Jefferson County",35216,US,Jefferson
"434 Hwy 31 Warrior, AL 35180",33.806104,-86.811695,1,rooftop,434,"Highway 31 S",,,Warrior,AL,"Jefferson County",35180,US,Jefferson
"763 Wilson St. Wetumpka, AL 36092",32.527714,-86.205347,1,rooftop,763,"Wilson St",,,Wetumpka,AL,"Elmore County",36092,US,Elmore
"1801 E Parks Hwy Wasilla, AK 99654",61.577776,-149.40408,1,rooftop,1801,"E Parks Hwy",,,Wasilla,AK,"Matanuska-Susitna Borough",99654,US,"Matanuska Susitna Borough"
"3674 E Country Field Cir Ste A Wasilla, AK 99654",61.589257,-149.357772,1,rooftop,3674,"E Country Field Cir",Ste,A,Wasilla,AK,"Matanuska-Susitna Borough",99654,US,"Matanuska Susitna Borough"
"39510 N. Gavilan Peak Pkwy. Anthem, AZ 85086",33.84336,-112.136064,1,rooftop,39510,"N Gavilan Peak Pkwy",,,Anthem,AZ,"Maricopa County",85086,US,Maricopa
"3610 W. Anthem Way Anthem, AZ 85086",33.866174,-112.135939,1,rooftop,3610,"W Anthem Way",,,Anthem,AZ,"Maricopa County",85086,US,Maricopa
"325 W Apache Trail Apache Junction, AZ 85120",33.413842,-111.549481,1,rooftop,325,"W Apache Trl",,,"Apache Junction",AZ,"Pinal County",85120,US,Pinal
"280 N. Avondale Blvd. Avondale, AZ 85323",33.449181,-112.307239,1,rooftop,280,"N Avondale Blvd",,,Avondale,AZ,"Maricopa County",85323,US,Maricopa
"21087 W. Main St., Corner Of Verrado Way Buckeye, AZ 85396",33.495747,-112.512611,1,range_interpolation,21087,"W Main St",,,Buckeye,AZ,"Maricopa County",85396,US,"TIGER/Line® dataset from the US Census Bureau"
"3699 Hwy 95 Bullhead City, AZ 86442",35.052594,-114.589709,1,rooftop,3699,"Highway 95",,,"Bullhead City",AZ,"Mohave County",86442,US,Mohave
"2350 Miracle Mile Bullhead City, AZ 86442",35.103018,-114.59607,1,rooftop,2350,"Miracle Mile",,,"Bullhead City",AZ,"Mohave County",86442,US,Mohave
"522 Finney Flat Suite A Camp Verde, AZ 86322",34.566774,-111.863568,0.9,rooftop,522,"W Finnie Flat Rd",Ste,A,"Camp Verde",AZ,"Yavapai County",86322,US,Yavapai
"5400 E Carefree Hwy/po Box 5482 Carefree, AZ 85377",33.799698,-111.964377,1,rooftop,5400,"E Carefree Hwy",,5482,Carefree,AZ,"Maricopa County",85377,US,Statewide
"1686 E Florence Blvd Casa Grande, AZ 85122",32.880166,-111.714892,1,rooftop,1686,"E Florence Blvd",,,"Casa Grande",AZ,"Pinal County",85122,US,Pinal
"28138 N. Tatum Blvd. Cave Creek, AZ 85331",33.740515,-111.978808,0.95,rooftop,28138,"N Tatum Blvd",,,"Cave Creek",AZ,"Maricopa County",85331,US,Maricopa
"3425 W Frye Rd Chandler, AZ 85226",33.296485,-111.899763,1,rooftop,3425,"W Frye Rd",,,Chandler,AZ,"Maricopa County",85226,US,Maricopa
"3777 S Arizona Ave Chandler, AZ 85248",33.250185,-111.838597,1,rooftop,3777,"S Arizona Ave",,,Chandler,AZ,"Maricopa County",85248,US,Maricopa
"4990 S. Arizona Ave. Chandler, AZ 85248",33.233685,-111.842076,1,rooftop,4990,"S Arizona Ave",,,Chandler,AZ,"Maricopa County",85248,US,Maricopa
"990 E. Warner Rd. Chandler, AZ 85225",33.335783,-111.825072,1,rooftop,990,"E Warner Rd",,,Chandler,AZ,"Maricopa County",85225,US,Maricopa
"5975 W. Chandler Blvd. Chandler, AZ 85226",33.304729,-111.94498,1,rooftop,5975,"W Chandler Blvd",,,Chandler,AZ,"Maricopa County",85226,US,Maricopa
"3990 W. Ray Road Chandler, AZ 85226",33.320598,-111.910348,1,rooftop,3990,"W Ray Rd",,,Chandler,AZ,"Maricopa County",85226,US,Maricopa
"2010 S. Dobson Rd. Chandler, AZ 85286",33.275624,-111.876962,1,rooftop,2010,"S Dobson Rd",,,Chandler,AZ,"Maricopa County",85286,US,Maricopa
"2005 N. Dobson Rd. Chandler, AZ 85224",33.335846,-111.875779,1,rooftop,2005,"N Dobson Rd",,,Chandler,AZ,"Maricopa County",85224,US,Maricopa
"990 E. Pecos Rd. Chandler, AZ 85225",33.292243,-111.825156,1,rooftop,990,"E Pecos Rd",,,Chandler,AZ,"Maricopa County",85225,US,Maricopa
"2995 E. Chandler Heights Rd. Chandler, AZ 85249",33.233075,-111.79012,1,rooftop,2995,"E Chandler Heights Rd",,,Chandler,AZ,"Maricopa County",85249,US,Maricopa
"1015 E. Ray Rd. Chandler, AZ 85225",33.320048,-111.823372,1,rooftop,1015,"E Ray Rd",,,Chandler,AZ,"Maricopa County",85225,US,Maricopa
"180 N. Dobson Rd., Chandler And Dobson Chandler, AZ 85224",33.568669,-112.447766,0.9,street_center,,"180th Ln",,,Waddell,AZ,"Maricopa County",85355,US,"TIGER/Line® dataset from the US Census Bureau"
"1179 South State Route 260 Cottonwood, AZ 86326",34.718784,-112.000778,1,rooftop,1179,"S State Route 260",,,Cottonwood,AZ,"Yavapai County",86326,US,Yavapai
"286 E. 7th Street Douglas, AZ 85607",31.341565,-109.557471,0.87,nearest_rooftop_match,300,"E 7th St",,,Douglas,AZ,"Cochise County",85607,US,Cochise
"1650 S Milton Rd Flagstaff, AZ 86001",35.184148,-111.661212,1,rooftop,1650,"S Milton Rd",,,Flagstaff,AZ,"Coconino County",86001,US,"City of Flagstaff"
"3506 East Route 66 Flagstaff, AZ 86004",35.215604,-111.598193,1,rooftop,3506,"E Route 66",,,Flagstaff,AZ,"Coconino County",86004,US,"City of Flagstaff"
"4744 S. Hwy 95 Fort Mohave, AZ 86426",35.018977,-114.597454,1,rooftop,4744,"S Highway 95",,,"Fort Mohave",AZ,"Mohave County",86426,US,Mohave
"16825 E Shea Blvd Fountain Hills, AZ 85268",33.57397,-111.718028,1,rooftop,16825,"E Shea Blvd",,,"Fountain Hills",AZ,"Maricopa County",85268,US,Maricopa
"16545 East Palisades Blvd Fountain Hills, AZ 85268",33.609077,-111.723706,1,rooftop,16545,"E Palisades Blvd",,,"Fountain Hills",AZ,"Maricopa County",85268,US,Maricopa
"1515 E Warner Rd Gilbert, AZ 85296",33.334041,-111.756976,1,rooftop,1515,"E Warner Rd",,,Gilbert,AZ,"Maricopa County",85296,US,Maricopa
"3931 S Gilbert Rd Gilbert, AZ 85297",33.278876,-111.786545,1,rooftop,3931,"S Gilbert Rd",,,Gilbert,AZ,"Maricopa County",85297,US,Maricopa
"765 S. Lindsay Rd., Corner Of Warner Gilbert, AZ 85296",33.336358,-111.772284,1,rooftop,765,"S Lindsay Rd",,,Gilbert,AZ,"Maricopa County",85296,US,Maricopa
"2371 E. Guadalupe Rd. Gilbert, AZ 85234",33.364287,-111.73954,1,rooftop,2371,"E Guadalupe Rd",,,Gilbert,AZ,"Maricopa County",85234,US,Maricopa
"3170 S. Higley Rd. Gilbert, AZ 85295",33.293015,-111.721858,1,rooftop,3170,"S Higley Rd",,,Gilbert,AZ,"Maricopa County",85295,US,Maricopa
"2428 S Val Vista Dr Gilbert, AZ 85295",33.305962,-111.756148,1,rooftop,2428,"S Val Vista Dr",,,Gilbert,AZ,"Maricopa County",85295,US,Maricopa
"9350 W Northern Ave Glendale, AZ 85305",33.553786,-112.259994,1,rooftop,9350,"W Northern Ave",,,Glendale,AZ,"Maricopa County",85305,US,Maricopa
"18591 N 59th Ave Glendale, AZ 85308",33.65375,-112.185508,1,rooftop,18591,"N 59th Ave",,,Glendale,AZ,"Maricopa County",85308,US,"City of Glendale"
"10404 N 43rd Ave Glendale, AZ 85302",33.580445,-112.153174,1,rooftop,10404,"N 43rd Ave",,,Glendale,AZ,"Maricopa County",85302,US,"City of Glendale"
"7499 W. Bethany Home Rd., Corner Of 75th Glendale, AZ 85303",33.522656,-112.219938,1,rooftop,7499,"W Bethany Home Rd",,,Glendale,AZ,"Maricopa County",85303,US,"City of Glendale"
"5125 W. Olive Ave Glendale, AZ 85302",33.566753,-112.169726,1,rooftop,5125,"W Olive Ave",,,Glendale,AZ,"Maricopa County",85302,US,"City of Glendale"
"100 North Broad St. Globe, AZ 85501",33.395997,-110.787344,1,rooftop,100,"N Broad St",,,Globe,AZ,"Gila County",85501,US,Gila
"1515 N Litchfield Rd Goodyear, AZ 85395",33.463009,-112.355729,1,rooftop,1515,"N Litchfield Rd",,,Goodyear,AZ,"Maricopa County",85395,US,Maricopa
"995 S Cotton Ln Goodyear, AZ 85338",33.437085,-112.421801,1,rooftop,995,"S Cotton Ln",,,Goodyear,AZ,"Maricopa County",85338,US,Maricopa
"2840 N. Dysart Rd., Corner Of Thomas Goodyear, AZ 85395",33.478126,-112.34166,1,rooftop,2840,"N Dysart Rd",,,Goodyear,AZ,"Maricopa County",85395,US,Maricopa
"240 W Continental Rd Green Valley, AZ 85622",31.853426,-110.995673,1,rooftop,240,"W Continental Rd",,,"Green Valley",AZ,"Pima County",85622,US,Pima
"3501 Stockton Hill Rd. Kingman, AZ 86409",35.225259,-114.037003,1,rooftop,3501,"Stockton Hill Rd",,,Kingman,AZ,"Mohave County",86409,US,Statewide
"75 N. Lake Havasu Ave. Lake Havasu City, AZ 86403",34.475567,-114.346385,1,rooftop,75,"N Lake Havasu Ave",,,"Lake Havasu City",AZ,"Mohave County",86403,US,Statewide
"5050 W. Baseline Rd. Laveen, AZ 85339",33.378195,-112.167539,1,rooftop,5050,"W Baseline Rd",,,Laveen,AZ,"Maricopa County",85339,US,Maricopa
"4890 N. Litchfield Rd. Litchfield Park, AZ 85340",33.507499,-112.358629,0.95,rooftop,4890,"N Litchfield Rd",,,"Litchfield Park",AZ,"Maricopa County",85340,US,Maricopa
"44274 West-smith Enke Rd. Maricopa, AZ 85138",33.073018,-112.04279,1,rooftop,44274,"W Smith-Enke Rd",,,Maricopa,AZ,"Pinal County",85138,US,Pinal
"305 E. Brown Rd. Mesa, AZ 85201",33.43449,-111.824659,1,rooftop,305,"E Brown Rd",,,Mesa,AZ,"Maricopa County",85201,US,"City of Mesa"
"1525 S Power Rd Mesa, AZ 85206",33.388809,-111.68307,1,rooftop,1525,"S Power Rd",,,Mesa,AZ,"Maricopa County",85206,US,"City of Mesa"
"5110 S Power Rd Mesa, AZ 85212",33.322872,-111.689525,1,rooftop,5110,"S Power Rd",,,Mesa,AZ,"Maricopa County",85212,US,"City of Gilbert"
"1212 S. Greenfield Rd. Mesa, AZ 85206",33.393086,-111.736964,1,rooftop,1212,"S Greenfield Rd",,,Mesa,AZ,"Maricopa County",85206,US,"City of Mesa"
"6015 E. Brown Road Mesa, AZ 85205",33.437018,-111.700907,1,rooftop,6015,"E Brown Rd",,,Mesa,AZ,"Maricopa County",85205,US,"City of Mesa"
"1135 S Gilbert Rd Mesa, AZ 85204",33.394361,-111.786076,1,rooftop,1135,"S Gilbert Rd",,,Mesa,AZ,"Maricopa County",85204,US,"City of Mesa"
"2809 S. Sossaman Rd. Mesa, AZ 85212",33.36414,-111.670294,1,rooftop,2809,"S Sossaman Rd",,,Mesa,AZ,"Maricopa County",85212,US,"City of Mesa"
"7547 E. Southern Ave. Mesa, AZ 85209",33.393111,-111.668602,1,rooftop,7547,"E Southern Ave",,,Mesa,AZ,"Maricopa County",85209,US,"City of Mesa"
"9152 E. Brown Rd. Mesa, AZ 85207",33.43712,-111.633876,1,rooftop,9152,"E Brown Rd",,,Mesa,AZ,"Maricopa County",85207,US,"City of Mesa"
"1137 S. Dobson Rd #10, Dobson/ Southern Mesa, AZ 85202",33.393729,-111.873286,0.95,rooftop,1137,"S Dobson Rd",#,10,Mesa,AZ,"Maricopa County",85202,US,"City of Mesa"
"9230 E. Broadway Rd. Mesa, AZ 85208",33.40844,-111.632072,1,rooftop,9230,"E Broadway Rd",,,Mesa,AZ,"Maricopa County",85208,US,Maricopa
"1230 S Longmore Ave Mesa, AZ 85202",33.391684,-111.864,1,rooftop,1230,"S Longmore",,,Mesa,AZ,"Maricopa County",85202,US,"City of Mesa"
"360 N. Val Vista Dr. Mesa, AZ 85213",33.422084,-111.754009,1,rooftop,360,"N Val Vista Dr",,,Mesa,AZ,"Maricopa County",85213,US,"City of Mesa"
"5954 E. Mcdowell Rd. Mesa, AZ 85215",33.466673,-111.702284,1,rooftop,5954,"E McDowell Rd",,,Mesa,AZ,"Maricopa County",85215,US,"City of Mesa"
"2807 N. Power Rd. Mesa, AZ 85215",33.466825,-111.683491,1,rooftop,2807,"N Power Rd",,,Mesa,AZ,"Maricopa County",85215,US,"City of Mesa"
"1151 E. Mckellips Rd. Mesa, AZ 85203",33.450852,-111.805559,1,rooftop,1151,"E McKellips Rd",,,Mesa,AZ,"Maricopa County",85203,US,"City of Mesa"
"9950 E. Guadalupe Rd. Mesa, AZ 85212",33.364841,-111.619736,1,rooftop,9950,"E Guadalupe Rd",,,Mesa,AZ,"Maricopa County",85212,US,"City of Mesa"
"2151 N Power Rd Mesa, AZ 85215",33.454435,-111.683578,1,rooftop,2151,"N Power Rd",,,Mesa,AZ,"Maricopa County",85215,US,"City of Mesa"
"10650 North Oracle Rd Oro Valley, AZ 85737",32.399008,-110.955271,1,rooftop,10650,"N Oracle Rd",,,Tucson,AZ,"Pima County",85737,US,Pima
"10555 N Oracle Rd Oro Valley, AZ 85737",32.39896,-110.959854,1,rooftop,10555,"N Oracle Rd",,,Tucson,AZ,"Pima County",85737,US,Pima
"131 W. Riverside Dr. Parker, AZ 85344",34.154499,-114.281013,0.63,nearest_rooftop_match,200,"Riverside Dr",,,Parker,AZ,"La Paz County",85344,US,Statewide
"8055 W Bell Rd Peoria, AZ 85382",33.636648,-112.228076,1,rooftop,8055,"W Bell Rd",,,Peoria,AZ,"Maricopa County",85382,US,Maricopa
"24890 N Lake Pleasant Pkwy Peoria, AZ 85383",33.709523,-112.275146,1,rooftop,24890,"N Lake Pleasant Pkwy",,,Peoria,AZ,"Maricopa County",85383,US,Maricopa
"10727 W. Olive Ave. Peoria, AZ 85345",33.565203,-112.290449,1,rooftop,10727,"W Olive Ave",,,Peoria,AZ,"Maricopa County",85345,US,Maricopa
"9069 W. Lake Pleasant Pkwy. Peoria, AZ 85382",33.673822,-112.254446,1,rooftop,9069,"W Lake Pleasant Pkwy",,,Peoria,AZ,"Maricopa County",85382,US,Maricopa
"8332 W Thunderbird Rd Peoria, AZ 85381",33.610514,-112.23818,1,rooftop,8332,"W Thunderbird Rd",,,Peoria,AZ,"Maricopa County",85381,US,Maricopa
"7530 W. Cactus Rd. Peoria, AZ 85381",33.596334,-112.220973,1,rooftop,7530,"W Cactus Rd",,,Peoria,AZ,"Maricopa County",85381,US,Maricopa
"24865 N. Lake Pleasant Parkway Peoria, AZ 85383",33.709373,-112.272437,0.95,range_interpolation,24865,"N Lake Pleasant Rd",,,Peoria,AZ,"Maricopa County",85382,US,"TIGER/Line® dataset from the US Census Bureau"
"9856 W. Peoria Ave. Peoria, AZ 85345",33.580778,-112.271914,1,rooftop,9856,"W Peoria Ave",,,Peoria,AZ,"Maricopa County",85345,US,Maricopa
"9172 W Union Hills Dr Peoria, AZ 85382",33.653275,-112.255577,1,rooftop,9172,"W Union Hills Dr",,,Peoria,AZ,"Maricopa County",85382,US,Maricopa
"4275 W. Thomas Rd. Phoenix, AZ 85019",33.479722,-112.151227,1,rooftop,4275,"W Thomas Rd",,,Phoenix,AZ,"Maricopa County",85019,US,Maricopa
"2406 East Thomas Rd., 24th Street And Thomas Phoenix, AZ 85016",33.480981,-112.029721,1,rooftop,2406,"E Thomas Rd",,,Phoenix,AZ,"Maricopa County",85016,US,Maricopa
"1525 North Central Avenue Phoenix, AZ 85004",33.465351,-112.073143,1,rooftop,1525,"N Central Ave",,,Phoenix,AZ,"Maricopa County",85004,US,Maricopa
"5450 West Happy Valley Road Phoenix, AZ 85053",33.712747,-112.113671,0.56,street_center,,"W Happy Valley Rd",,,Phoenix,AZ,"Maricopa County",85027,US,"TIGER/Line® dataset from the US Census Bureau"
"21001 N Tatum Blvd  Ste 82 Phoenix, AZ 85050",33.676493,-111.973393,1,rooftop,21001,"N Tatum Blvd",Ste,82,Phoenix,AZ,"Maricopa County",85050,US,Maricopa
"4040 N. 19th Ave. Phoenix, AZ 85015",33.494332,-112.100415,1,rooftop,4040,"N 19th Ave",,,Phoenix,AZ,"Maricopa County",85015,US,Maricopa
"4657 E Chandler Blvd Phoenix, AZ 85048",33.304681,-111.980889,1,rooftop,4657,"E Chandler Blvd",,,Phoenix,AZ,"Maricopa County",85048,US,Maricopa
"4323 East Bell Road Phoenix, AZ 85032",33.640057,-111.987361,1,rooftop,4323,"E Bell Rd",,,Phoenix,AZ,"Maricopa County",85032,US,Maricopa
"4515 E Thomas Rd Phoenix, AZ 85018",33.477791,-111.984618,1,rooftop,4515,"E Thomas Rd",,,Phoenix,AZ,"Maricopa County",85018,US,Maricopa
"3440 West Glendale Ave Phoenix, AZ 85051",33.538814,-112.133894,1,rooftop,3440,"W Glendale Ave",,,Phoenix,AZ,"Maricopa County",85051,US,Maricopa
"6650 W. Lower Buckeye Rd. Phoenix, AZ 85043",33.423428,-112.203294,1,rooftop,6650,"W Lower Buckeye Rd",,,Phoenix,AZ,"Maricopa County",85043,US,Maricopa
"5835 W. Indian School Rd. Phoenix, AZ 85031",33.494619,-112.185801,1,rooftop,5835,"W Indian School Rd",,,Phoenix,AZ,"Maricopa County",85031,US,Maricopa
"5715 N 19th Ave Phoenix, AZ 85015",33.520932,-112.098113,1,rooftop,5715,"N 19th Ave",,,Phoenix,AZ,"Maricopa County",85015,US,Maricopa
"3502 West Camelback Rd Phoenix, AZ 85019",33.509941,-112.134862,1,rooftop,3502,"W Camelback Rd",,,Phoenix,AZ,"Maricopa County",85019,US,Maricopa
"12409 N. Tatum Blvd. Phoenix, AZ 85032",33.598771,-111.979012,0.95,rooftop,12409,"N Tatum Blvd",,,Phoenix,AZ,"Maricopa County",85032,US,Maricopa
"2140 E Baseline Rd Phoenix, AZ 85042",33.378847,-112.034316,1,rooftop,2140,"E Baseline Rd",,,Phoenix,AZ,"Maricopa County",85042,US,Maricopa
"4742 E. Indian School Phoenix, AZ 85018",33.495749,-111.978486,1,rooftop,4742,"E Indian School Rd",,,Phoenix,AZ,"Maricopa County",85018,US,Maricopa
"10707 W. Camelback Rd. Phoenix, AZ 85037",33.507638,-112.290765,1,rooftop,10707,"W Camelback Rd",,,Phoenix,AZ,"Maricopa County",85037,US,Maricopa
"1615 E. Baseline Rd. Phoenix, AZ 85042",33.377893,-112.047092,0.9,range_interpolation,1615,"E Baseline Rd",,,Phoenix,AZ,"Maricopa County",85042,US,"TIGER/Line® dataset from the US Census Bureau"
"28635 N. North Valley Parkway Phoenix, AZ 85085",33.741662,-112.106758,1,rooftop,28635,"N North Valley Pkwy",,,Phoenix,AZ,"Maricopa County",85085,US,Maricopa
"6021 S Central Ave Phoenix, AZ 85042",33.391258,-112.07257,1,rooftop,6021,"S Central Ave",,,Phoenix,AZ,"Maricopa County",85042,US,Maricopa
"3210 E. Union Hills Dr., Corner Of 32nd Street Phoenix, AZ 85050",33.655682,-112.012897,1,rooftop,3210,"E Union Hills Dr",,,Phoenix,AZ,"Maricopa County",85050,US,Maricopa
"3975 E. Thunderbird Rd. Phoenix, AZ 85032",33.611399,-111.996482,1,rooftop,3975,"E Thunderbird Rd",,,Phoenix,AZ,"Maricopa County",85032,US,Maricopa
"7550 South 19th Ave. Phoenix, AZ 85041",33.378449,-112.099738,1,rooftop,7550,"S 19th Ave",,,Phoenix,AZ,"Maricopa County",85041,US,Maricopa
"7409 W Virginia Ave Phoenix, AZ 85035",33.475812,-112.218585,1,rooftop,7409,"W Virginia Ave",,,Phoenix,AZ,"Maricopa County",85035,US,Maricopa
"18460 N. 7th St. Phoenix, AZ 85022",33.654367,-112.066067,1,rooftop,18460,"N 7th St",,,Phoenix,AZ,"Maricopa County",85022,US,Maricopa
"711 E. Indian School Rd. Phoenix, AZ 85014",33.494252,-112.064589,1,rooftop,711,"E Indian School Rd",,,Phoenix,AZ,"Maricopa County",85014,US,Maricopa
"21001 N Tatum Blvd Ste 20 Phoenix, AZ 85050",33.676493,-111.973393,1,rooftop,21001,"N Tatum Blvd",Ste,20,Phoenix,AZ,"Maricopa County",85050,US,Maricopa
"4734 E Ray Rd Phoenix, AZ 85044",33.321177,-111.981378,1,rooftop,4734,"E Ray Rd",,,Phoenix,AZ,"Maricopa County",85044,US,Maricopa
"10 E Dunlap Ave Phoenix, AZ 85020",33.568384,-112.073358,1,rooftop,10,"E Dunlap Ave",,,Phoenix,AZ,"Maricopa County",85020,US,Maricopa
"3560 West Peoria Avenue Phoenix, AZ 85029",33.582371,-112.135758,1,rooftop,3560,"W Peoria Ave",,,Phoenix,AZ,"Maricopa County",85029,US,Maricopa
"1610 E Camelback Rd Phoenix, AZ 85016",33.509553,-112.046803,0.95,rooftop,1610,"E Camelback Rd",,,Phoenix,AZ,"Maricopa County",85016,US,Maricopa
"12602 N Paradise Village Pkwy W Phoenix, AZ 85032",33.600896,-111.988523,1,range_interpolation,12602,"N Paradise Village Pkwy W",,,Phoenix,AZ,"Maricopa County",85032,US,"TIGER/Line® dataset from the US Census Bureau"
"16806 N 7th St Phoenix, AZ 85022",33.638518,-112.069307,1,rooftop,16806,"N 7th St",,,Phoenix,AZ,"Maricopa County",85022,US,Maricopa
"1855 W. Thunderbird Rd. Phoenix, AZ 85023",33.610436,-112.099181,1,rooftop,1855,"W Thunderbird Rd",,,Phoenix,AZ,"Maricopa County",85023,US,Maricopa
"1850 W. Dunlap Ave. Phoenix, AZ 85021",33.568072,-112.098934,1,rooftop,1850,"W Dunlap Ave",,,Phoenix,AZ,"Maricopa County",85021,US,Maricopa
"4430 East Ray Road Phoenix, AZ 85044",33.320758,-111.987661,1,rooftop,4430,"E Ray Rd",,,Phoenix,AZ,"Maricopa County",85044,US,Maricopa
"6002 North 7th Street Phoenix, AZ 85014",33.524106,-112.065406,1,rooftop,6002,"N 7th St",,,Phoenix,AZ,"Maricopa County",85014,US,Maricopa
"8245 W. Thomas Rd. Phoenix, AZ 85033",33.479259,-112.237051,1,rooftop,8245,"W Thomas Rd",,,Phoenix,AZ,"Maricopa County",85033,US,Maricopa
"3933 E. Camelback Rd. Phoenix, AZ 85018",33.509717,-111.996882,1,range_interpolation,3933,"E Camelback Rd",,,Phoenix,AZ,"Maricopa County",85018,US,"TIGER/Line® dataset from the US Census Bureau"
"1625 N. 44th St. Phoenix, AZ 85008",33.450754,-111.986062,1,rooftop,1625,"N 44th St",,,Phoenix,AZ,"Maricopa County",85008,US,Statewide
"1625 E Camelback Rd. Phoenix, AZ 85016",33.507984,-112.046492,0.95,rooftop,1625,"E Camelback Rd",,,Phoenix,AZ,"Maricopa County",85016,US,Maricopa
"50 W. Jefferson St., Suite 140 Phoenix, AZ 85003",33.447296,-112.074393,1,range_interpolation,50,"W Jefferson St",Ste,140,Phoenix,AZ,"Maricopa County",85003,US,"TIGER/Line® dataset from the US Census Bureau"
"2727 W Agua Fria Fwy Phoenix, AZ 85027",33.666531,-112.118994,1,rooftop,2727,"W Agua Fria Fwy",,,Phoenix,AZ,"Maricopa County",85027,US,Maricopa
"901 Willow Lake Rd Prescott, AZ 86301",34.598339,-112.456988,1,rooftop,901,"Willow Lake Rd",,,Prescott,AZ,"Yavapai County",86301,US,Yavapai
"506 North Miller Valley Road Prescott, AZ 86301",34.549209,-112.478597,1,rooftop,506,"Miller Valley Rd",,,Prescott,AZ,"Yavapai County",86301,US,Yavapai
"3025 N. Windsong Dr. Prescott Valley, AZ 86314",34.586627,-112.326082,1,rooftop,3025,"N Windsong Dr",,,"Prescott Valley",AZ,"Yavapai County",86314,US,Yavapai
"7587 S. Power Rd. Queen Creek, AZ 85142",33.279335,-111.685565,1,rooftop,7587,"S Power Rd Rd",,,"Queen Creek",AZ,"Maricopa County",85142,US,Statewide
"21201 East Ocotillo Rd., Queen Creek, AZ 85142",33.247891,-111.625667,1,rooftop,21201,"E Ocotillo Rd",,,"Queen Creek",AZ,"Maricopa County",85142,US,Maricopa
"21398 S Ellsworth Loop Rd Queen Creek, AZ 85142",33.254106,-111.641544,1,rooftop,21398,"S Ellsworth Loop Rd",,,"Queen Creek",AZ,"Maricopa County",85142,US,Maricopa
"6045 North Scottsdale Road Scottsdale, AZ 85250",33.525465,-111.925248,1,rooftop,6045,"N Scottsdale Rd",,,Scottsdale,AZ,"Maricopa County",85250,US,"City of Scottsdale"
"7111 East Bell Rd. Scottsdale, AZ 85254",33.638038,-111.927243,1,rooftop,7111,"E Bell Rd",,,Scottsdale,AZ,"Maricopa County",85254,US,Maricopa
"9000 E Indian Bend Rd Scottsdale, AZ 85250",33.538665,-111.864968,1,range_interpolation,9000,"E Indian Bend Rd",,,Scottsdale,AZ,"Maricopa County",85250,US,"TIGER/Line® dataset from the US Census Bureau"
"15444 N Frank Lloyd Wright Blvd Scottsdale, AZ 85260",33.627616,-111.888882,1,rooftop,15444,"N Frank Lloyd Wright Blvd",,,Scottsdale,AZ,"Maricopa County",85260,US,Maricopa
"32351 N Scottsdale Rd Scottsdale, AZ 85266",33.778891,-111.923066,1,rooftop,32351,"N Scottsdale Rd",,,Scottsdale,AZ,"Maricopa County",85266,US,Maricopa
"32331 N Scottsdale Rd Scottsdale, AZ 85266",33.779167,-111.924657,1,rooftop,32331,"N Scottsdale Rd",,,Scottsdale,AZ,"Maricopa County",85266,US,"City of Scottsdale"
"7552 E. Indian School Rd. Scottsdale, AZ 85251",33.495365,-111.918071,1,rooftop,7552,"E Indian School Rd",,,Scottsdale,AZ,"Maricopa County",85251,US,Maricopa
"10160 Bell Road East Scottsdale, AZ 85260",33.640859,-111.862064,0.9,rooftop,10160,"E Bell Rd",,,Scottsdale,AZ,"Maricopa County",85260,US,"City of Scottsdale"
"10010 N Scottsdale Rd Scottsdale, AZ 85253",33.577348,-111.926712,1,rooftop,10010,"N Scottsdale Rd",,,"Paradise Valley",AZ,"Maricopa County",85253,US,Maricopa
"10653 N. Scottsdale Rd. Scottsdale, AZ 85254",33.583301,-111.924147,1,rooftop,10653,"N Scottsdale Rd",,,Scottsdale,AZ,"Maricopa County",85254,US,"City of Scottsdale"
"14672 N Frank Lloyd Wright Scottsdale, AZ 85260",33.619033,-111.877235,1,rooftop,14672,"N Frank Lloyd Wright Blvd",,,Scottsdale,AZ,"Maricopa County",85260,US,"City of Scottsdale"
"23215 No Pima Rd. Scottsdale, AZ 85255",33.668727,-111.823682,0.33,place,,,,,Scottsdale,AZ,"Maricopa County",85255,US,"TIGER/Line® dataset from the US Census Bureau"
"7901 E Thomas Road Scottsdale, AZ 85251",33.479802,-111.910874,1,rooftop,7901,"E Thomas Rd",,,Scottsdale,AZ,"Maricopa County",85251,US,"City of Scottsdale"
"20 Airport Road Sedona, AZ 86336",34.862145,-111.779138,1,rooftop,20,"Airport Rd",,,Sedona,AZ,"Yavapai County",86336,US,Yavapai
"60 E Deuce Of Clubs Dr. Show Low, AZ 85901",34.25107,-110.042124,0.95,rooftop,60,"E Deuce of Clubs",,,"Show Low",AZ,"Navajo County",85901,US,Statewide
"4151 E Highway 90 Sierra Vista, AZ 85635",31.556017,-110.255541,1,rooftop,4151,"E Highway 90",,,"Sierra Vista",AZ,"Cochise County",85635,US,Cochise
"2090 East Fry Blvd. Sierra Vista, AZ 85635",31.553065,-110.276859,1,rooftop,2090,"E Fry Blvd",,,"Sierra Vista",AZ,"Cochise County",85635,US,Cochise
"9901b W Thunderbird Blvd Sun City, AZ 85351",33.608998,-112.268567,1,rooftop,9901,"W Thunderbird Blvd",,,"Sun City",AZ,"Maricopa County",85351,US,Maricopa
"10720 West Bell Rd. Sun City, AZ 85351",33.638268,-112.290142,1,range_interpolation,10720,"W Bell Rd",,,"Sun City",AZ,"Maricopa County",85351,US,"TIGER/Line® dataset from the US Census Bureau"
"19602 R H Johnson Blvd. Sun City West, AZ 85375",33.661125,-112.358557,0.9,rooftop,19602,"N R H Johnson Blvd",,,"Sun City West",AZ,"Maricopa County",85375,US,Maricopa
"9546 E. Riggs Rd. Sun Lakes, AZ 85248",33.218583,-111.876538,1,rooftop,9546,"E Riggs Rd",,,"Sun Lakes",AZ,"Maricopa County",85248,US,Maricopa
"13731 W Bell Rd Surprise, AZ 85374",33.637557,-112.353752,1,rooftop,13731,"W Bell Rd",,,Surprise,AZ,"Maricopa County",85374,US,Maricopa
"13870 W. Greenway Rd. Surprise, AZ 85374",33.624337,-112.358642,1,rooftop,13870,"W Greenway Rd",,,Surprise,AZ,"Maricopa County",85374,US,Maricopa
"15474 W. Greenway Rd. Surprise, AZ 85374",33.624653,-112.393174,1,rooftop,15474,"W Greenway Rd",,,Surprise,AZ,"Maricopa County",85374,US,Maricopa
"15300 N. Cotton Lane Surprise, AZ 85388",33.623625,-112.427589,1,rooftop,15300,"N Cotton Ln",,,Surprise,AZ,"Maricopa County",85388,US,Maricopa
"19505 N Sunrise Blvd Surprise, AZ 85374",33.654886,-112.403643,1,rooftop,19505,"N Sunrise Blvd",,,Surprise,AZ,"Maricopa County",85374,US,Maricopa
"718 N Main St. Taylor, AZ 85939",34.475332,-110.087952,0.66,nearest_rooftop_match,650,"N Main St",,,Taylor,AZ,"Navajo County",85939,US,Statewide
"909 East Apache Blvd Tempe, AZ 85281",33.41462,-111.926155,1,range_interpolation,909,"E Apache Blvd",,,Tempe,AZ,"Maricopa County",85281,US,"TIGER/Line® dataset from the US Census Bureau"
"1818 E Baseline Rd Tempe, AZ 85283",33.379769,-111.908073,1,rooftop,1818,"E Baseline Rd",,,Tempe,AZ,"Maricopa County",85283,US,Maricopa
"1800 E Rio Salado Pkwy Ste 120 Tempe, AZ 85281",33.429399,-111.909049,1,range_interpolation,1800,"E Rio Salado Pkwy",Ste,120,Tempe,AZ,"Maricopa County",85281,US,"TIGER/Line® dataset from the US Census Bureau"
"1750 E Broadway Rd Tempe, AZ 85282",33.408003,-111.909709,1,rooftop,1750,"E Broadway Rd",,,Tempe,AZ,"Maricopa County",85282,US,Maricopa
"1424 W Baseline Rd Tempe, AZ 85283",33.378868,-111.962498,1,rooftop,1424,"W Baseline Rd",,,Tempe,AZ,"Maricopa County",85283,US,Maricopa
"855 E. Elliot Road, Corner Of Rural Tempe, AZ 85284",33.34867,-111.929236,1,rooftop,855,"E Elliot Rd",,,Tempe,AZ,"Maricopa County",85284,US,Maricopa
"3303 S. Rural Tempe, AZ 85282",33.39234,-111.925887,1,rooftop,3303,"S Rural Rd",,,Tempe,AZ,"Maricopa County",85282,US,Maricopa
"802 S. Mill Ave. Tempe, AZ 85281",33.421353,-111.940393,1,rooftop,802,"S Mill Ave",,,Tempe,AZ,"Maricopa County",85281,US,Maricopa
"9830 W Lower Buckeye Rd Tolleson, AZ 85353",33.423361,-112.269864,1,rooftop,9830,"W Lower Buckeye Rd",,,Tolleson,AZ,"Maricopa County",85353,US,Maricopa
"6500 E Grant Rd Tucson, AZ 85715",32.248777,-110.853271,1,rooftop,6500,"E Grant Rd",,,Tucson,AZ,"Pima County",85715,US,Pima
"4040 N Oracle Rd Tucson, AZ 85705",32.279831,-110.976063,1,rooftop,4040,"N Oracle Rd",,,Tucson,AZ,"Pima County",85705,US,Pima
"3901 W Ina Rd Tucson, AZ 85741",32.33608,-111.048868,1,rooftop,3901,"W Ina Rd",,,Tucson,AZ,"Pima County",85741,US,Pima
"8920 E Tanque Verde Tucson, AZ 85749",32.257374,-110.801822,1,rooftop,8920,"E Tanque Verde Rd",,,Tucson,AZ,"Pima County",85749,US,Pima
"3699 E Broadway Blvd Tucson, AZ 85716",32.223093,-110.915111,1,rooftop,3699,"E Broadway Blvd",,,Tucson,AZ,"Pima County",85716,US,Pima
"4365 N Oracle Rd Tucson, AZ 85705",32.286134,-110.978809,1,rooftop,4365,"N Oracle Rd",,,Tucson,AZ,"Pima County",85705,US,Pima
"2601 S. Houghton Rd., Golf Links Tucson, AZ 85730",32.191573,-110.772078,1,rooftop,2601,"S Houghton Rd",,,Tucson,AZ,"Pima County",85730,US,Pima
"8705 E Speedway Blvd Tucson, AZ 85710",32.235977,-110.806398,1,rooftop,8705,"E Speedway Blvd",,,Tucson,AZ,"Pima County",85710,US,Pima
"3832 East Speedway Tucson, AZ 85716",32.235594,-110.911201,1,rooftop,3832,"E Speedway Blvd",,,Tucson,AZ,"Pima County",85716,US,Pima
"6370 N. Campbell Ave., #120 Tucson, AZ 85718",32.321846,-110.928727,1,rooftop,6370,"N Campbell Ave",Ste,120,Tucson,AZ,"Pima County",85718,US,Pima
"1225 W Irvington Rd Tucson, AZ 85714",32.16044,-110.990231,1,rooftop,1225,"W Irvington Rd",,,Tucson,AZ,"Pima County",85714,US,Pima
"7740 N Cortaro Rd Tucson, AZ 85743",32.346956,-111.098721,1,rooftop,7740,"N Cortaro Rd",,,Tucson,AZ,"Pima County",85743,US,Pima
"4748 E. Sunrise Tucson, AZ 85718",32.307065,-110.891866,1,rooftop,4748,"E Sunrise Dr",,,Tucson,AZ,"Pima County",85718,US,Pima
"6488 N. Oracle Road Tucson, AZ 85704",32.324327,-110.97449,1,rooftop,6488,"N Oracle Rd",,,Tucson,AZ,"Pima County",85704,US,Pima
"6895 E. Sunrise Tucson, AZ 85750",32.309377,-110.844867,1,rooftop,6895,"E Sunrise Dr",,,Tucson,AZ,"Pima County",85750,US,Pima
"9615 E Old Spanish Trl Tucson, AZ 85748",32.206758,-110.787039,1,range_interpolation,9615,"E Old Spanish Trl",,,Tucson,AZ,"Pima County",85748,US,"TIGER/Line® dataset from the US Census Bureau"
"7901 E. Golf Links Road Tucson, AZ 85730",32.192413,-110.823181,1,rooftop,7901,"E Golf Links Rd",,,Tucson,AZ,"Pima County",85730,US,Pima
"825 East University Blvd., Suite 101 Tucson, AZ 85719",32.231856,-110.958987,1,rooftop,825,"E University Blvd",Ste,101,Tucson,AZ,"Pima County",85719,US,Pima
"615 N. Alvernon Tucson, AZ 85711",32.229329,-110.910191,1,rooftop,615,"N Alvernon Way",,,Tucson,AZ,"Pima County",85711,US,Pima
"1900 W. Valencia Rd. Tucson, AZ 85746",32.134485,-111.007144,1,rooftop,1900,"W Valencia Rd",,,Tucson,AZ,"Pima County",85746,US,Pima
"7499 E. Broadway Tucson, AZ 85710",32.221405,-110.832776,1,rooftop,7499,"E Broadway Blvd",,,Tucson,AZ,"Pima County",85710,US,Pima
"3785 West Ina Rd., Ina And Thornydale Tucson, AZ 85741",32.337044,-111.046158,1,rooftop,3785,"W Ina Rd",,,Tucson,AZ,"Pima County",85741,US,Pima
"6310 E. Broadway Blvd. Tucson, AZ 85710",32.220696,-110.85737,1,rooftop,6310,"E Broadway Blvd",,,Tucson,AZ,"Pima County",85710,US,Pima
"865  E. Grant Tucson, AZ 85719",32.250841,-110.958479,1,rooftop,865,"E Grant Rd",,,Tucson,AZ,"Pima County",85719,US,Pima
"5100 E. Grant Rd. Tucson, AZ 85712",32.250232,-110.883484,1,rooftop,5100,"E Grant Rd",,,Tucson,AZ,"Pima County",85712,US,Pima
"2385 N. Silverbell Road Tucson, AZ 85745",32.25024,-111.013827,1,rooftop,2385,"N Silverbell Rd",,,Tucson,AZ,"Pima County",85745,US,Pima
"2033 W Wickenburg Way Wickenburg, AZ 85390",33.962085,-112.772893,1,range_interpolation,2033,"W Wickenburg Way",,,Wickenburg,AZ,"Maricopa County",85390,US,"TIGER/Line® dataset from the US Census Bureau"
"11464 South Fortuna Rd. Yuma, AZ 85367",32.663732,-114.444876,1,rooftop,11464,"S Fortuna Rd",,,Yuma,AZ,"Yuma County",85367,US,Yuma
"1450 E Yuma Palms Pkwy Yuma, AZ 85365",32.704625,-114.606035,1,rooftop,1450,"E Yuma Palms Pkwy",,,Yuma,AZ,"Yuma County",85365,US,Yuma
"1555 S Avenue B Yuma, AZ 85364",32.699194,-114.649602,1,rooftop,1555,"S Ave B",,,Yuma,AZ,"Yuma County",85364,US,Yuma
"2800 S 4th Ave Yuma, AZ 85364",32.676186,-114.625505,1,rooftop,2800,"S 4th Ave",,,Yuma,AZ,"Yuma County",85364,US,Yuma
"2833 Bella Vista Way Bella Vista, AR 72714",36.437974,-94.236315,1,rooftop,2833,"Bella Vista Way",,,"Bella Vista",AR,"Benton County",72714,US,"Arkansas Geographic Information Office"
"3220 N. Reynolds Rd. Bryant, AR 72022",34.624503,-92.498845,1,rooftop,3220,"N Reynolds Rd",,,Bryant,AR,"Saline County",72022,US,"Arkansas Geographic Information Office"
"7377 Alcoa Rd Bryant, AR 72022",34.604006,-92.530356,1,rooftop,7377,"Alcoa Rd",,,Bryant,AR,"Saline County",72022,US,"Arkansas Geographic Information Office"
"825 Oak St. Conway, AR 72032",35.091641,-92.435859,1,range_interpolation,825,"Oak St",,,Conway,AR,"Faulkner County",72032,US,"TIGER/Line® dataset from the US Census Bureau"
"501 Elsinger Blvd Conway, AR 72032",35.086108,-92.414652,1,rooftop,501,"Elsinger Blvd",,,Conway,AR,"Faulkner County",72032,US,"Arkansas Geographic Information Office"
"2402 N. College Avenue Fayetteville, AR 72703",36.095593,-94.151866,1,rooftop,2402,"N College Ave",,,Fayetteville,AR,"Washington County",72703,US,"City of Fayetteville"
"3545 N Shiloh Dr Fayetteville, AR 72703",36.116369,-94.155784,1,rooftop,3545,"N Shiloh Dr",,,Fayetteville,AR,"Washington County",72703,US,"City of Fayetteville"
"4001 Phoenix Ave Fort Smith, AR 72903",35.341415,-94.387669,1,rooftop,4001,"Phoenix Ave",,,"Fort Smith",AR,"Sebastian County",72903,US,"Arkansas Geographic Information Office"
"3630 Central Ave. Hot Springs, AR 71913",34.467252,-93.060199,1,rooftop,3630,"Central Ave",,,"Hot Springs National Park",AR,"Garland County",71913,US,"Arkansas Geographic Information Office"
"110 Southwest Dr. Jonesboro, AR 72401",35.820966,-90.706436,1,rooftop,110,"Southwest Dr",,,Jonesboro,AR,"Craighead County",72401,US,"Arkansas Geographic Information Office"
"3000 E Highland Dr Ste A Jonesboro, AR 72401",35.82311,-90.664261,1,rooftop,3000,"E Highland Dr",Ste,A,Jonesboro,AR,"Craighead County",72401,US,"Arkansas Geographic Information Office"
"1122 S. University Avenue Little Rock, AR 72204",34.742039,-92.34215,1,rooftop,1122,"S University Ave",,,"Little Rock",AR,"Pulaski County",72204,US,Pulaski
"12700 Chenal Pkwy Little Rock, AR 72211",34.755989,-92.414922,1,rooftop,12700,"Chenal Pkwy",,,"Little Rock",AR,"Pulaski County",72211,US,Pulaski
"420 S University Ave Little Rock, AR 72205",34.749357,-92.34475,1,rooftop,420,"S University Ave",,,"Little Rock",AR,"Pulaski County",72205,US,Pulaski
"2501 Mccain Blvd. North Little Rock, AR 72116",34.797679,-92.237693,1,rooftop,2501,"McCain Blvd",,,"North Little Rock",AR,"Pulaski County",72116,US,Pulaski
"1501 West Kings Highway Paragould, AR 72450",36.030256,-90.440545,0.81,nearest_rooftop_match,1547,"AR 135 Hwy S",,,Paragould,AR,"Greene County",72450,US,"Arkansas Geographic Information Office"
"1749 W. Walnut St. Rogers, AR 72756",36.334543,-94.143062,1,rooftop,1749,"W Walnut St",,,Rogers,AR,"Benton County",72756,US,"Arkansas Geographic Information Office"
"2404 Promenade Blvd Rogers, AR 72758",36.302129,-94.175212,1,range_interpolation,2404,"Promenade Blvd",,,Rogers,AR,"Benton County",72758,US,"TIGER/Line® dataset from the US Census Bureau"
"101 East Main Street Russellville, AR 72801",35.278465,-93.133509,1,rooftop,101,"E Main St",,,Russellville,AR,"Pope County",72801,US,"Arkansas Geographic Information Office"
"8604 Highway 107 Sherwood, AR 72120",34.83351,-92.230894,1,rooftop,8604,"Highway 107",,,Sherwood,AR,"Pulaski County",72120,US,Pulaski
"2001 S.thompson St Springdale, AR 72764",36.16675,-94.141317,1,rooftop,2001,"S Thompson St",,,Springdale,AR,"Washington County",72764,US,"Arkansas Geographic Information Office"
"3908 N. Stateline Ave. Texarkana, AR 71854",33.461089,-94.042179,1,rooftop,3908,"N State Line Ave",,,Texarkana,AR,"Miller County",71854,US,"Arkansas Geographic Information Office"
"2015 Fayetteville Road Van Buren, AR 72956",35.467171,-94.356959,1,rooftop,2015,"Fayetteville Rd",,,"Van Buren",AR,"Crawford County",72956,US,"Arkansas Geographic Information Office"
"12058 Palmdale Rd Adelanto, CA 92301",34.507096,-117.400896,1,rooftop,12058,"Palmdale Rd",,,Adelanto,CA,"San Bernardino County",92301,US,"San Bernardino"
"5623 Kanan Rd. Agoura Hills, CA 91301",34.152588,-118.758574,1,rooftop,5623,"Kanan Rd",,,"Agoura Hills",CA,"Los Angeles County",91301,US,"Los Angeles"
"2700 5th St Alameda, CA 94501",37.788761,-122.279785,1,rooftop,2700,"5th St",,,Alameda,CA,"Alameda County",94501,US,Alameda
"2314 Santa Clara Ave Alameda, CA 94501",37.765587,-122.242836,1,rooftop,2314,"Santa Clara Ave",,,Alameda,CA,"Alameda County",94501,US,Alameda
"885 Island Dr Ste A Alameda, CA 94502",37.737077,-122.240681,1,rooftop,885,"Island Dr",Ste,A,Alameda,CA,"Alameda County",94502,US,Alameda
"931 Marina Village Pkwy Alameda, CA 94501",37.787894,-122.27661,1,range_interpolation,931,"Marina Village Pkwy",,,Alameda,CA,"Alameda County",94501,US,"TIGER/Line® dataset from the US Census Bureau"
"3158 Danville Blvd Alamo, CA 94507",37.870924,-122.045418,1,range_interpolation,3158,"Danville Blvd",,,Alamo,CA,"Contra Costa County",94507,US,"TIGER/Line® dataset from the US Census Bureau"
"1057 Eastshore Hwy Albany, CA 94710",37.884253,-122.308051,1,range_interpolation,1057,"Eastshore Hwy",,,Berkeley,CA,"Alameda County",94710,US,"TIGER/Line® dataset from the US Census Bureau"
"1382 Solano Ave Albany, CA 94706",37.890545,-122.290536,1,rooftop,1382,"Solano Ave",,,Albany,CA,"Alameda County",94706,US,Alameda
"2120 W Main St Alhambra, CA 91801",34.091086,-118.147144,1,rooftop,2120,"W Main St",,,Alhambra,CA,"Los Angeles County",91801,US,"Los Angeles"
"816 E. Main Street Alhambra, CA 91801",34.098835,-118.11802,1,rooftop,816,"E Main St",,,Alhambra,CA,"Los Angeles County",91801,US,"Los Angeles"
"1485 E. Valley Blvd. Alhambra, CA 91801",34.079445,-118.109249,1,range_interpolation,1485,"E Valley Blvd",,,Alhambra,CA,"Los Angeles County",91801,US,"TIGER/Line® dataset from the US Census Bureau"
"2532 W. Valley Blvd. Alhambra, CA 91803",34.076806,-118.151062,1,range_interpolation,2532,"W Valley Blvd",,,Alhambra,CA,"Los Angeles County",91803,US,"TIGER/Line® dataset from the US Census Bureau"
"26932 La Paz Rd Aliso Viejo, CA 92656",33.571168,-117.705603,1,rooftop,26932,"La Paz Rd",,,"Aliso Viejo",CA,"Orange County",92656,US,Orange
"26891 Aliso Creek Rd Aliso Viejo, CA 92656",33.572291,-117.723608,1,range_interpolation,26891,"Aliso Creek Rd",,,"Aliso Viejo",CA,"Orange County",92656,US,"TIGER/Line® dataset from the US Census Bureau"
"1385 Tavern Rd Alpine, CA 91901",32.836012,-116.775584,1,rooftop,1385,"Tavern Rd",,,Alpine,CA,"San Diego County",91901,US,"San Diego Geographic Information Source - JPA"
"1803 South Harbor Blvd Anaheim, CA 92802",33.803023,-117.915657,1,rooftop,1803,"S Harbor Blvd",,,Anaheim,CA,"Orange County",92802,US,"City of Anaheim"
"8148 E Santa Ana Canyon Rd Anaheim, CA 92808",33.865464,-117.747172,1,rooftop,8148,"E Santa Ana Canyon Rd",,,Anaheim,CA,"Orange County",92808,US,"City of Anaheim"
"101 S Euclid St Anaheim, CA 92802",33.830899,-117.942671,0.95,rooftop,101,"S Euclid Ave",,,Anaheim,CA,"Orange County",92801,US,Orange
"2222 E. Lincoln Ave. Anaheim, CA 92806",33.837757,-117.886129,1,rooftop,2222,"E Lincoln Ave",,,Anaheim,CA,"Orange County",92806,US,"City of Anaheim"
"1676 West Katella Avenue Anaheim, CA 92802",33.802798,-117.940593,1,rooftop,1676,"W Katella Ave",,,Anaheim,CA,"Orange County",92802,US,"City of Anaheim"
"510 South Beach Boulevard Anaheim, CA 92804",33.825427,-117.992762,1,rooftop,510,"S Beach Blvd",,,Anaheim,CA,"Orange County",92804,US,Orange
"611 S. Brookhurst St. Anaheim, CA 92804",33.824533,-117.959946,1,rooftop,611,"S Brookhurst St",,,Anaheim,CA,"Orange County",92804,US,"City of Anaheim"
"5735 E. La Palma Avenue Anaheim, CA 92807",33.860847,-117.789049,0.95,rooftop,5735,"E La Palma Ave",,,Anaheim,CA,"Orange County",92807,US,Orange
"270 West Lincoln Avenue Anaheim, CA 92805",33.834733,-117.916455,1,rooftop,270,"W Lincoln Ave",,,Anaheim,CA,"Orange County",92805,US,"City of Anaheim"
"460 South Anaheim Hills Road Anaheim, CA 92807",33.844928,-117.775542,1,rooftop,460,"S Anaheim Hills Rd",,,Anaheim,CA,"Orange County",92807,US,"City of Anaheim"
"2011 East La Palma Anaheim, CA 92806",33.847706,-117.888083,1,rooftop,2011,"E La Palma Ave",,,Anaheim,CA,"Orange County",92806,US,Orange
"731 South Weir Canyon Road Anaheim Hills, CA 92808",33.861097,-117.739717,1,rooftop,731,"S Weir Canyon Rd",,,Anaheim,CA,"Orange County",92808,US,"City of Anaheim"
"2975 East Street Anderson, CA 96007",40.452279,-122.298722,1,rooftop,2975,"East St",,,Anderson,CA,"Shasta County",96007,US,Shasta
"41 N Main St Angels Camp, CA 95222",38.083208,-120.559989,1,range_interpolation,41,"N Main St",,,"Angels Camp",CA,"Calaveras County",95222,US,"TIGER/Line® dataset from the US Census Bureau"
"5769 Lone Tree Way Antioch, CA 94531",37.964462,-121.737958,1,rooftop,5769,"Lone Tree Way",,,Antioch,CA,"Contra Costa County",94531,US,"Contra Costa"
"4028 Lone Tree Way Antioch, CA 94531",37.977279,-121.803934,1,rooftop,4028,"Lone Tree Way",,,Antioch,CA,"Contra Costa County",94531,US,"Contra Costa"
"19201 Bear Valley Rd Apple Valley, CA 92308",34.469998,-117.244757,1,rooftop,19201,"Bear Valley Rd",,,"Apple Valley",CA,"San Bernardino County",92308,US,"San Bernardino"
"20288 Us Hwy 18 Apple Valley, CA 92307",34.527494,-117.21766,1,rooftop,20288,"Hwy 18",,,"Apple Valley",CA,"San Bernardino County",92307,US,"San Bernardino"
"20180 Us Highway 18 Apple Valley, CA 92307",34.528866,-117.222869,1,rooftop,20180,"Hwy 18",,,"Apple Valley",CA,"San Bernardino County",92307,US,"San Bernardino"
"783 Rio Del Mar Blvd Ste 3 Aptos, CA 95003",36.974062,-121.888415,0.95,rooftop,783,"Rio Del Mar",Ste,3,Aptos,CA,"Santa Cruz County",95003,US,"Santa Cruz"
"188 Las Tunas Dr. Arcadia, CA 91007",34.107031,-118.037723,1,rooftop,188,"Las Tunas Dr",,,Arcadia,CA,"Los Angeles County",91007,US,"Los Angeles"
"1401 S.  Baldwin Ave. Arcadia, CA 91007",34.12358,-118.056704,1,rooftop,1401,"S Baldwin Ave",,,Arcadia,CA,"Los Angeles County",91007,US,"Los Angeles"
"600 F St Arcata, CA 95521",40.866189,-124.084262,1,rooftop,600,"F St",,,Arcata,CA,"Humboldt County",95521,US,Humboldt
"9725 Laurel Canyon Blvd Arleta, CA 91331",34.246035,-118.419084,1,rooftop,9725,"Laurel Canyon Blvd",,,Arleta,CA,"Los Angeles County",91331,US,"Los Angeles"
"9089 Woodman Ave. Arleta, CA 91331",34.234983,-118.440494,1,rooftop,9089,"Woodman Ave",,,Arleta,CA,"Los Angeles County",91331,US,"Los Angeles"
"1435 E Grand Ave Arroyo Grande, CA 93420",35.120569,-120.604409,1,range_interpolation,1435,"E Grand Ave",,,"Arroyo Grande",CA,"San Luis Obispo County",93420,US,"TIGER/Line® dataset from the US Census Bureau"
"11851 Artesia Boulevard Artesia, CA 90701",33.873183,-118.081338,1,range_interpolation,11851,"Artesia Blvd",,,Artesia,CA,"Los Angeles County",90701,US,"TIGER/Line® dataset from the US Census Bureau"
"505 #b Bear Mountain Blvd Arvin, CA 93203",35.20913,-118.82843,0.33,place,,,,,Arvin,CA,"Kern County",93203,US,"TIGER/Line® dataset from the US Census Bureau"
"8320 El Camino Real Atascadero, CA 93422",35.474083,-120.656277,0.95,rooftop,8320,"El Camino Real",,,Atascadero,CA,"San Luis Obispo County",93422,US,"San Luis Obispo"
"1000 Commerce Ave Atwater, CA 95301",37.342351,-120.610822,1,rooftop,1000,"Commerce Ave",,,Atwater,CA,"Merced County",95301,US,Merced
"1651 Bellevue Rd Atwater, CA 95301",37.360571,-120.611327,1,range_interpolation,1651,"Bellevue Rd",,,Atwater,CA,"Merced County",95301,US,"TIGER/Line® dataset from the US Census Bureau"
"2700 Bell Rd Auburn, CA 95603",38.943388,-121.095742,1,rooftop,2700,"Bell Rd",,,Auburn,CA,"Placer County",95602,US,Placer
"10045 Combie Rd Auburn, CA 95602",39.042057,-121.092648,1,rooftop,10045,"Combie Rd",,,Auburn,CA,"Nevada County",95602,US,Nevada
"388 Elm St. Auburn, CA 95603",38.90481,-121.073809,0.95,rooftop,388,"Elm Ave",,,Auburn,CA,"Placer County",95603,US,Placer
"2140 Grass Valley Hwy Auburn, CA 95603",38.933864,-121.090243,1,rooftop,2140,"Grass Valley Hwy",,,Auburn,CA,"Placer County",95603,US,Placer
"809 N Azusa Ave Azusa, CA 91702",34.135734,-117.907882,1,rooftop,809,"N Azusa Ave",,,Azusa,CA,"Los Angeles County",91702,US,"Los Angeles"
"915 E. Arrow Hwy, Azusa, CA 91702",34.107139,-117.890651,0.82,nearest_rooftop_match,873,"W Arrow Hwy",,,Azusa,CA,"Los Angeles County",91702,US,"Los Angeles"
"367 N Citrus Ave Azusa, CA 91702",34.128046,-117.890249,1,range_interpolation,367,"N Citrus Ave",,,Azusa,CA,"Los Angeles County",91702,US,"TIGER/Line® dataset from the US Census Bureau"
"101 W Foothill Blvd Azusa, CA 91702",34.134023,-117.907893,1,rooftop,101,"W Foothill Blvd",,,Azusa,CA,"Los Angeles County",91702,US,"Los Angeles"
"6601 Stine Road Bakersfield, CA 93313",35.295311,-119.057269,1,rooftop,6601,"Stine Rd",,,Bakersfield,CA,"Kern County",93313,US,"City of Bakersfield"
"3401 Mall View Rd Bakersfield, CA 93306",35.393999,-118.955218,1,rooftop,3401,"Mall View Rd",,,Bakersfield,CA,"Kern County",93306,US,"City of Bakersfield"
"9100 Rosedale Hwy Bakersfield, CA 93312",35.385264,-119.103068,1,rooftop,9100,"Rosedale Hwy",,,Bakersfield,CA,"Kern County",93312,US,"City of Bakersfield"
"2901 Ming Ave Bakersfield, CA 93304",35.33675,-119.035914,1,rooftop,2901,"Ming Ave",,,Bakersfield,CA,"Kern County",93304,US,"City of Bakersfield"
"11000 Stockdale Hwy Bakersfield, CA 93311",35.350033,-119.124752,1,rooftop,11000,"Stockdale Hwy",,,Bakersfield,CA,"Kern County",93311,US,"City of Bakersfield"
"6500 S. Union Ave. Bakersfield, CA 93307",35.295284,-119.002515,1,rooftop,6500,"S Union Ave",,,Bakersfield,CA,"Kern County",93307,US,"City of Bakersfield"
"11300 Ming Ave Bakersfield, CA 93311",35.340173,-119.128585,1,rooftop,11300,"Ming Ave",,,Bakersfield,CA,"Kern County",93311,US,"City of Bakersfield"
"5184 Stockdale Hwy. Bakersfield, CA 93309",35.354641,-119.059163,1,rooftop,5184,"Stockdale Hwy",,,Bakersfield,CA,"Kern County",93309,US,"City of Bakersfield"
"6500 Niles Street Bakersfield, CA 93306",35.376667,-118.930809,1,rooftop,6500,"Niles St",,,Bakersfield,CA,"Kern County",93306,US,"City of Bakersfield"
"9628 Rosedale Hwy. Bakersfield, CA 93312",35.383841,-119.109619,1,rooftop,9628,"Rosedale Hwy",,,Bakersfield,CA,"Kern County",93312,US,"City of Bakersfield"
"3500 Stine Rd Bakersfield, CA 93309",35.322858,-119.055508,1,rooftop,3500,"Stine Rd",,,Bakersfield,CA,"Kern County",93309,US,"City of Bakersfield"
"8200 Stockdale Hwy Ste G Bakersfield, CA 93311",35.355504,-119.093319,1,rooftop,8200,"Stockdale Hwy",Ste,G,Bakersfield,CA,"Kern County",93311,US,Kern
"2690 Mount Vernon Ave Bakersfield, CA 93306",35.396656,-118.969026,1,rooftop,2690,"Mt Vernon Ave",,,Bakersfield,CA,"Kern County",93306,US,"City of Bakersfield"
"4400 Coffee Rd Bakersfield, CA 93308",35.399476,-119.090444,1,rooftop,4400,"Coffee Rd",,,Bakersfield,CA,"Kern County",93308,US,"City of Bakersfield"
"3151 Baldwin Park Blvd.. Baldwin Park, CA 91706",34.070407,-117.978957,1,range_interpolation,3151,"Baldwin Park Blvd",,,"Baldwin Park",CA,"Los Angeles County",91706,US,"TIGER/Line® dataset from the US Census Bureau"
"14503 Ramona Blvd Baldwin Park, CA 91706",34.086941,-117.959018,1,range_interpolation,14503,"Ramona Blvd",,,"Baldwin Park",CA,"Los Angeles County",91706,US,"TIGER/Line® dataset from the US Census Bureau"
"1550 Puente Avenue Baldwin Park, CA 91706",34.063583,-117.968206,0.9,rooftop,1550,"N Puente Ave",,,"Baldwin Park",CA,"Los Angeles County",91706,US,"Los Angeles"
"7101 Atlantic Avenue Bell, CA 90201",33.971305,-118.188031,1,range_interpolation,7101,"Atlantic Ave",,,Bell,CA,"Los Angeles County",90201,US,"TIGER/Line® dataset from the US Census Bureau"
"2100 Columbus Pkwy Benicia, CA 94510",38.081131,-122.19303,1,rooftop,2100,"Columbus Pkwy",,,Benicia,CA,"Solano County",94510,US,Solano
"2655 Telegraph Ave. Berkeley, CA 94704",37.861923,-122.258412,1,rooftop,2655,"Telegraph Ave",,,Berkeley,CA,"Alameda County",94704,US,Alameda
"2187 Shattuck Ave Berkeley, CA 94704",37.869653,-122.267489,1,rooftop,2187,"Shattuck Ave",,,Berkeley,CA,"Alameda County",94704,US,Alameda
"1414 University Ave. Berkeley, CA 94702",37.869487,-122.283581,1,rooftop,1414,"University Ave",,,Berkeley,CA,"Alameda County",94702,US,Alameda
"2300 Shattuck Ave Berkeley, CA 94704",37.867123,-122.268251,1,rooftop,2300,"Shattuck Ave",,,Berkeley,CA,"Alameda County",94704,US,Berkeley
"1451 Shattuck Ave Berkeley, CA 94709",37.881478,-122.269005,1,rooftop,1451,"Shattuck Ave",,,Berkeley,CA,"Alameda County",94709,US,Alameda
"9045 Wilshire Boulevard Beverly Hills, CA 90211",34.067396,-118.389169,1,rooftop,9045,"Wilshire Blvd",,,"Beverly Hills",CA,"Los Angeles County",90211,US,"Los Angeles"
"42136 Big Bear Blvd/po Box 6966, Big Bear Boulevard And Fox Farm Road Big Bear Lake, CA 92315",34.249232,-116.88371,0.95,rooftop,42136,"Big Bear Blvd",,6966,"Big Bear Lake",CA,"San Bernardino County",92315,US,"San Bernardino"
"390 N. Brea Blvd Brea, CA 92821",33.924402,-117.895355,1,rooftop,390,"N Brea Blvd",,,Brea,CA,"Orange County",92821,US,Orange
"855 E Birch St Brea, CA 92821",33.918812,-117.887341,1,rooftop,855,"E Birch St",,,Brea,CA,"Orange County",92821,US,"City of Brea"
"3171 Balfour Rd Brentwood, CA 94513",37.926361,-121.721363,1,rooftop,3171,"Balfour Rd",,,Brentwood,CA,"Contra Costa County",94513,US,"Contra Costa"
"1175 2nd St Brentwood, CA 94513",37.936741,-121.70004,1,rooftop,1175,"2nd St",,,Brentwood,CA,"Contra Costa County",94513,US,"Contra Costa"
"218 E Highway 246 Bldg 3 Buellton, CA 93427",34.610242,-120.18878,1,rooftop,218,"E Hwy 246",Bldg,,Buellton,CA,"Santa Barbara County",93427,US,"Santa Barbara"
"7530 Orangethorpe Ave Buena Park, CA 90621",33.857325,-118.000901,1,rooftop,7530,"Orangethorpe Ave",,,"Buena Park",CA,"Orange County",90621,US,Orange
"7065 La Palma Ave. Buena Park, CA 90620",33.847088,-118.010275,1,rooftop,7065,"La Palma Ave",,,"Buena Park",CA,"Orange County",90620,US,Orange
"8850 Valley View Street Buena Park, CA 90620",33.834047,-118.028108,1,range_interpolation,8850,"Valley View St",,,"Buena Park",CA,"Orange County",90620,US,"TIGER/Line® dataset from the US Census Bureau"
"1800 W Empire Ave Burbank, CA 91504",34.189635,-118.330559,1,rooftop,1800,"W Empire Ave",,,Burbank,CA,"Los Angeles County",91504,US,"Los Angeles"
"1033 N. Hollywood Way Burbank, CA 91505",34.169172,-118.348001,1,rooftop,1033,"N Hollywood Way",,,Burbank,CA,"Los Angeles County",91505,US,"City of Burbank"
"1015 N. San Fernando Boulevard Burbank, CA 91504",34.187354,-118.319089,1,rooftop,1015,"N San Fernando Blvd",,,Burbank,CA,"Los Angeles County",91504,US,"City of Burbank"
"101 E. Alameda Ave. Burbank, CA 91502",34.173666,-118.301504,1,rooftop,101,"E Alameda Ave",,,Burbank,CA,"Los Angeles County",91502,US,"City of Burbank"
"1820 W. Verdugo Ave. Burbank, CA 91506",34.166917,-118.324483,1,rooftop,1820,"W Verdugo Ave",,,Burbank,CA,"Los Angeles County",91506,US,"City of Burbank"
"2500 W. Victory Blvd Burbank, CA 91505",34.183706,-118.338844,1,rooftop,2500,"W Victory Blvd",,,Burbank,CA,"Los Angeles County",91505,US,"City of Burbank"
"511 N. Hollywood Way Burbank, CA 91505",34.159718,-118.343558,1,rooftop,511,"N Hollywood Way",,,Burbank,CA,"Los Angeles County",91505,US,"City of Burbank"
"1871 El Camino Real Burlingame, CA 94010",37.596062,-122.385232,1,range_interpolation,1871,"El Camino Real",,,Burlingame,CA,"San Mateo County",94010,US,"TIGER/Line® dataset from the US Census Bureau"
"420 E 2nd St Calexico, CA 92231",32.666449,-115.492522,1,rooftop,420,"E 2nd St",,,Calexico,CA,"Imperial County",92231,US,Imperial
"209 W Ventura Blvd Camarillo, CA 93010",34.217383,-119.072652,1,rooftop,209,"W Ventura Blvd",,,Camarillo,CA,"Ventura County",93010,US,Ventura
"5800 Santa Rosa Rd Camarillo, CA 93012",34.22582,-118.987971,1,rooftop,5800,"Santa Rosa Rd",,,Camarillo,CA,"Ventura County",93012,US,Ventura
"5259 Mission Oaks Blvd. Camarillo, CA 93012",34.229198,-118.998965,1,rooftop,5259,"Mission Oaks Blvd",,,Camarillo,CA,"Ventura County",93012,US,Ventura
"351 Carmen Dr., Suite B Camarillo, CA 93010",34.219181,-119.053191,1,rooftop,351,"Carmen Dr",Ste,B,Camarillo,CA,"Ventura County",93010,US,Ventura
"760 Arneill Rd Camarillo, CA 93010",34.225331,-119.038921,1,range_interpolation,760,"Arneill Rd",,,Camarillo,CA,"Ventura County",93010,US,"TIGER/Line® dataset from the US Census Bureau"
"3500 Palmer Dr Cameron Park, CA 95682",38.660592,-120.966826,1,rooftop,3500,"Palmer Dr",,,"Cameron Park",CA,"El Dorado County",95682,US,"El Dorado"
"3020 Green Valley Rd Ste B Cameron Park, CA 95682",38.697451,-121.002965,1,rooftop,3020,"Green Valley Rd",Ste,B,"Cameron Park",CA,"El Dorado County",95682,US,"El Dorado"
"1720 S Bascom Ave Campbell, CA 95008",37.292334,-121.931618,1,range_interpolation,1720,"S Bascom Ave",,,Campbell,CA,"Santa Clara County",95008,US,"TIGER/Line® dataset from the US Census Bureau"
"148 North San Tomas Aquino Rd. Campbell, CA 95008",37.2906,-121.976444,1,range_interpolation,148,"N San Tomas Aquino Rd",,,Campbell,CA,"Santa Clara County",95008,US,"TIGER/Line® dataset from the US Census Bureau"
"6700 Topanga Canyon Blvd Canoga Park, CA 91303",34.192164,-118.605655,1,rooftop,6700,"Topanga Canyon Blvd",,,"Canoga Park",CA,"Los Angeles County",91303,US,"Los Angeles"
"21051 Sherman Way Canoga Park, CA 91303",34.20125,-118.592155,1,rooftop,21051,"Sherman Way",,,"Canoga Park",CA,"Los Angeles County",91303,US,"Los Angeles"
"19424 Soledad Canyon Rd. Canyon Country, CA 91351",34.415254,-118.474597,1,rooftop,19424,"Soledad Canyon Rd",,,"Canyon Country",CA,"Los Angeles County",91351,US,"Los Angeles"
"1825 41st Ave Capitola, CA 95010",36.975818,-121.965067,1,range_interpolation,1825,"41st Ave",,,Capitola,CA,"Santa Cruz County",95010,US,"TIGER/Line® dataset from the US Census Bureau"
"1750 41st Ave Capitola, CA 95010",36.97485,-121.963948,1,rooftop,1750,"41st Ave",,,Capitola,CA,"Santa Cruz County",95010,US,"City of Santa Cruz"
"809 Bay Ave Capitola, CA 95010",36.981279,-121.95582,1,range_interpolation,809,"Bay Ave",,,Capitola,CA,"Santa Cruz County",95010,US,"TIGER/Line® dataset from the US Census Bureau"
"2650 Gateway Road Carlsbad, CA 92009",33.129076,-117.253788,1,rooftop,2650,"Gateway Rd",,,Carlsbad,CA,"San Diego County",92009,US,"San Diego Geographic Information Source - JPA"
"2510 El Camino Real Carlsbad, CA 92008",33.180927,-117.326874,1,range_interpolation,2510,"El Camino Real",,,Carlsbad,CA,"San Diego County",92008,US,"TIGER/Line® dataset from the US Census Bureau"
"7740 Rancho Santa Fe Road Carlsbad, CA 92009",33.078627,-117.238958,1,range_interpolation,7740,"Rancho Santa Fe Rd",,,Carlsbad,CA,"San Diego County",92009,US,"TIGER/Line® dataset from the US Census Bureau"
"6 The Crossroads Carmel, CA 93923",36.539096,-121.909576,1,range_interpolation,6,"The Crossroads",,,Carmel,CA,"Monterey County",93923,US,"TIGER/Line® dataset from the US Census Bureau"
"4959 Marconi Ave Carmichael, CA 95608",38.618129,-121.347498,1,rooftop,4959,"Marconi Ave",,,Carmichael,CA,"Sacramento County",95608,US,Sacramento
"1036 Casitas Pass Rd Carpinteria, CA 93013",34.395908,-119.5132,1,range_interpolation,1036,"Casitas Pass Rd",,,Carpinteria,CA,"Santa Barbara County",93013,US,"TIGER/Line® dataset from the US Census Bureau"
"20700 Avalon Blvd Ste 700 Carson, CA 90746",33.843065,-118.259827,1,rooftop,20700,"Avalon Blvd",Ste,700,Carson,CA,"Los Angeles County",90746,US,"City of Carson"
"651 W Sepulveda Blvd Carson, CA 90745",33.809363,-118.285648,1,rooftop,651,"W Sepulveda Blvd",,,Carson,CA,"Los Angeles County",90745,US,"City of Carson"
"23806 Main Street Carson, CA 90745",33.808411,-118.275195,1,rooftop,23806,"Main St",,,Carson,CA,"Los Angeles County",90745,US,"City of Carson"
"150 West Carson Street Carson, CA 90745",33.830976,-118.279492,1,rooftop,150,"W Carson St",,,Carson,CA,"Los Angeles County",90745,US,"City of Carson"
"3667 Castro Valley Blvd Castro Valley, CA 94546",37.694502,-122.071372,1,rooftop,3667,"Castro Valley Blvd",,,"Castro Valley",CA,"Alameda County",94546,US,Alameda
"68-010 Vista Chino Cathedral City, CA 92234",33.818256,-116.466743,0.33,place,,,,,"Cathedral City",CA,"Riverside County",92234,US,"TIGER/Line® dataset from the US Census Bureau"
"67750 E Palm Canyon Dr Cathedral City, CA 92234",33.787526,-116.480224,1,rooftop,67750,"E Palm Canyon Dr",,,"Cathedral City",CA,"Riverside County",92234,US,Riverside
"31575 Date Palm Dr. Cathedral City, CA 92234",33.81909,-116.459672,1,rooftop,31575,"Date Palm Dr",,,"Cathedral City",CA,"Riverside County",92234,US,Riverside
"20200 Bloomfield Ave Cerritos, CA 90703",33.847095,-118.062168,1,rooftop,20200,"Bloomfield Ave",,,Cerritos,CA,"Los Angeles County",90703,US,"Los Angeles"
"11525 South St Cerritos, CA 90703",33.859412,-118.087274,1,rooftop,11525,"South St",,,Cerritos,CA,"Los Angeles County",90703,US,"Los Angeles"
"13303 East South Street Cerritos, CA 90703",33.859959,-118.174034,0.5,street_center,,"E South St",,,"Long Beach",CA,"Los Angeles County",90805,US,"TIGER/Line® dataset from the US Census Bureau"
"1120 Forest Ave. Chico, CA 95928",39.73881,-121.805387,1,rooftop,1120,"Forest Ave",,,Chico,CA,"Butte County",95928,US,Butte
"2780 Esplanade Chico, CA 95973",39.760981,-121.86472,1,rooftop,2780,Esplanade,,,Chico,CA,"Butte County",95973,US,Butte
"1496 East Ave Chico, CA 95926",39.761677,-121.815614,1,rooftop,1496,"East Ave",,,Chico,CA,"Butte County",95926,US,Butte
"801 East Ave Chico, CA 95926",39.758271,-121.846811,1,rooftop,801,"East Ave",,,Chico,CA,"Butte County",95926,US,Butte
"5555 Philadelphia St Chino, CA 91710",34.032788,-117.681927,1,rooftop,5555,"Philadelphia St",,,Chino,CA,"San Bernardino County",91710,US,"San Bernardino"
"3944 Grand Ave Chino, CA 91710",34.001487,-117.718767,1,rooftop,3944,"Grand Ave",,,Chino,CA,"San Bernardino County",91710,US,"San Bernardino"
"12101 Central Ave., Central And Philadelphia Chino, CA 91710",34.033139,-117.688714,1,rooftop,12101,"Central Ave",,,Chino,CA,"San Bernardino County",91710,US,"San Bernardino"
"13181 Peyton Drive Chino Hills, CA 91709",34.014221,-117.744639,1,range_interpolation,13181,"Peyton Dr",,,"Chino Hills",CA,"San Bernardino County",91709,US,"TIGER/Line® dataset from the US Census Bureau"
"3290 Chino Hills Parkway Chino Hills, CA 91709",33.983065,-117.733077,1,rooftop,3290,"Chino Hills Pkwy",,,"Chino Hills",CA,"San Bernardino County",91709,US,"San Bernardino"
"866 Eastlake Parkway Chula Vista, CA 91914",32.651774,-116.970615,1,rooftop,866,"Eastlake Pkwy",,,"Chula Vista",CA,"San Diego County",91914,US,Sandoval
"1240 Broadway Chula Vista, CA 91911",32.604726,-117.080953,1,rooftop,1240,Broadway,,,"Chula Vista",CA,"San Diego County",91911,US,"San Diego Geographic Information Source - JPA"
"16 3rd Avenue Ext. Chula Vista, CA 91910",32.649929,-117.085166,1,range_interpolation,16,"3rd Ave",,,"Chula Vista",CA,"San Diego County",91910,US,"TIGER/Line® dataset from the US Census Bureau"
"645 E. Palomar St. Chula Vista, CA 91911",32.615216,-117.025521,1,rooftop,645,"E Palomar St E",,,"Chula Vista",CA,"San Diego County",91911,US,"San Diego Geographic Information Source - JPA"
"555 Broadway Ste 1054 Chula Vista, CA 91910",32.629719,-117.08569,1,rooftop,555,Broadway,Ste,1054,"Chula Vista",CA,"San Diego County",91910,US,"San Diego Geographic Information Source - JPA"
"1376 3rd Ave Chula Vista, CA 91911",32.603999,-117.066259,1,rooftop,1376,"3rd Ave",,,"Chula Vista",CA,"San Diego County",91911,US,"San Diego Geographic Information Source - JPA"
"380 E H St Chula Vista, CA 91910",32.638599,-117.050241,1,rooftop,380,"E H St",,,"Chula Vista",CA,"San Diego County",91910,US,"San Diego Geographic Information Source - JPA"
"691 3rd Ave. Chula Vista, CA 91910",32.628039,-117.07415,1,rooftop,691,"3rd Ave",,,"Chula Vista",CA,"San Diego County",91910,US,"San Diego Geographic Information Source - JPA"
"5837 Sunrise Blvd Citrus Heights, CA 95610",38.672628,-121.273755,1,rooftop,5837,"Sunrise Blvd",,,"Citrus Heights",CA,"Sacramento County",95610,US,Sacramento
"17751 Colima Rd City Of Industry, CA 91748",33.991563,-117.918644,1,rooftop,17751,"Colima Rd",,,"City of Industry",CA,"Los Angeles County",91748,US,"Los Angeles"
"21590 East Valley Blvd. City Of Industry, CA 91789",34.026,-117.834877,0.8,rooftop,21590,"Valley Blvd",,,Walnut,CA,"Los Angeles County",91789,US,"Los Angeles"
"6490 Clayton Rd Clayton, CA 94517",37.942237,-121.931575,1,rooftop,6490,"Clayton Rd",,,Clayton,CA,"Contra Costa County",94517,US,"Contra Costa"
"1111 S Cloverdale Blvd Cloverdale, CA 95425",38.785063,-123.014255,1,rooftop,1111,"S Cloverdale Blvd",,,Cloverdale,CA,"Sonoma County",95425,US,Sonoma
"900 Shaw Ave Clovis, CA 93612",36.806935,-119.698592,1,rooftop,900,"Shaw Ave",,,Clovis,CA,"Fresno County",93612,US,Fresno
"695 W Herndon Ave Clovis, CA 93612",36.840194,-119.728338,1,rooftop,695,"W Herndon Ave",,,Clovis,CA,"Fresno County",93612,US,Fresno
"2133 Shaw Ave Clovis, CA 93611",36.809505,-119.675657,1,rooftop,2133,"Shaw Ave",,,Clovis,CA,"Fresno County",93611,US,Fresno
"1107 N Willow Ave Clovis, CA 93611",36.850002,-119.727935,1,rooftop,1107,"N Willow Ave",,,Clovis,CA,"Fresno County",93611,US,Fresno
"1794 Ashlan Ave Clovis, CA 93611",36.793203,-119.682876,1,rooftop,1794,"Ashlan Ave",,,Clovis,CA,"Fresno County",93611,US,Fresno
"10 Shaw Avenue Clovis, CA 93612",36.808106,-119.70876,1,rooftop,10,"Shaw Ave",,,Clovis,CA,"Fresno County",93612,US,Fresno
"1405 Herndon Ave., Clovis, CA 93611",36.838047,-119.690202,1,rooftop,1405,"Herndon Ave",,,Clovis,CA,"Fresno County",93611,US,Fresno
"84010 Avenue 50 Coachella, CA 92236",33.685987,-116.198525,1,rooftop,84010,"Ave 50",,,Coachella,CA,"Riverside County",92236,US,Riverside
"5001 Junipero Serra Blvd Colma, CA 94014",37.673298,-122.46466,1,rooftop,5001,"Junipero Serra Blvd",,,Colma,CA,"San Mateo County",94014,US,"San Mateo"
"1010 N. Pepper Avenue Colton, CA 92324",34.078014,-117.35279,1,range_interpolation,1010,"N Pepper Ave",,,Colton,CA,"San Bernardino County",92324,US,"TIGER/Line® dataset from the US Census Bureau"
"5600 Whittier Blvd Commerce, CA 90022",34.017946,-118.150348,1,rooftop,5600,"Whittier Blvd",,,Commerce,CA,"Los Angeles County",90022,US,"Los Angeles"
"1621 S Alameda St Compton, CA 90220",33.879758,-118.219497,1,rooftop,1621,"S Alameda St",,,Compton,CA,"Los Angeles County",90220,US,"Los Angeles"
"220 East Compton Boulevard Compton, CA 90220",33.895037,-118.221645,1,rooftop,220,"E Compton Blvd",,,Compton,CA,"Los Angeles County",90220,US,"Los Angeles"
"901 S. Central Avenue Compton, CA 90220",33.887652,-118.250614,1,rooftop,901,"S Central Ave",,,Compton,CA,"Los Angeles County",90220,US,"Los Angeles"
"2677 Clayton Rd Concord, CA 94519",37.975773,-122.027645,1,rooftop,2677,"Clayton Rd",,,Concord,CA,"Contra Costa County",94519,US,"Contra Costa"
"4424 Treat Blvd Concord, CA 94521",37.962574,-121.993093,1,rooftop,4424,"Treat Blvd",,,Concord,CA,"Contra Costa County",94521,US,"Contra Costa"
"5408 Ygnacio Valley Rd Concord, CA 94521",37.949191,-121.959212,0.9,nearest_rooftop_match,5410,"Ygnacio Valley Rd",,,Concord,CA,"Contra Costa County",94521,US,"Contra Costa"
"2615 Tuscanny St Corona, CA 92881",33.82688,-117.516376,1,rooftop,2615,"Tuscanny St",,,Corona,CA,"Riverside County",92881,US,Riverside
"11950 De Palma Rd. Corona, CA 92883",33.746625,-117.451268,1,rooftop,11950,"De Palma Rd",,,Corona,CA,"Riverside County",92883,US,Riverside
"1299 E Ontario Ave Corona, CA 92881",33.84824,-117.542598,1,range_interpolation,1299,"E Ontario Ave",,,Corona,CA,"Riverside County",92881,US,"TIGER/Line® dataset from the US Census Bureau"
"1183 Magnolia Ave. Corona, CA 92879",33.861907,-117.548989,1,range_interpolation,1183,"Magnolia Ave",,,Corona,CA,"Riverside County",92879,US,"TIGER/Line® dataset from the US Census Bureau"
"1322 W. 6th St. Corona, CA 92882",33.877196,-117.589296,1,rooftop,1322,"W 6th St",,,Corona,CA,"Riverside County",92882,US,Riverside
"3030 Harbor Blvd Ste A Costa Mesa, CA 92626",33.681156,-117.917793,1,rooftop,3030,"Harbor Blvd",Ste,A,"Costa Mesa",CA,"Orange County",92626,US,Orange
"2701 Harbor Blvd., Bldg B Costa Mesa, CA 92626",33.67057,-117.91933,1,range_interpolation,2701,"Harbor Blvd",Bldg,B,"Costa Mesa",CA,"Orange County",92626,US,"TIGER/Line® dataset from the US Census Bureau"
"1150 Baker St. Costa Mesa, CA 92626",33.680019,-117.90768,1,range_interpolation,1150,"Baker St",,,"Costa Mesa",CA,"Orange County",92626,US,"TIGER/Line® dataset from the US Census Bureau"
"1835 Newport Boulevard #c Costa Mesa, CA 92627",33.642473,-117.920118,1,rooftop,1835,"Newport Blvd",Ste,C,"Costa Mesa",CA,"Orange County",92627,US,Orange
"175 E 17th St Costa Mesa, CA 92627",33.635669,-117.919398,1,range_interpolation,175,"E 17th St",,,"Costa Mesa",CA,"Orange County",92627,US,"TIGER/Line® dataset from the US Census Bureau"
"575 S. Citrus Ave. Covina, CA 91723",34.079332,-117.890543,1,rooftop,575,"S Citrus Ave",,,Covina,CA,"Los Angeles County",91723,US,"Los Angeles"
"206 N. Azusa Avenue Covina, CA 91722",34.087341,-117.906478,1,rooftop,206,"N Azusa Ave",,,Covina,CA,"Los Angeles County",91722,US,"Los Angeles"
"657 Us Highway 101 N. Crescent City, CA 95531",41.762136,-124.19603,1,rooftop,657,"Hwy 101 N",,,"Crescent City",CA,"Del Norte County",95531,US,"Del Norte"
"10820 Jefferson Blvd Culver City, CA 90230",33.999108,-118.393947,1,rooftop,10820,"Jefferson Blvd",,,"Culver City",CA,"Los Angeles County",90230,US,"City of Culver City"
"6000 Sepulveda Blvd., Ste 2250 Culver City, CA 90230",33.985635,-118.395263,1,rooftop,6000,"Sepulveda Blvd",Ste,2250,"Culver City",CA,"Los Angeles County",90230,US,"City of Culver City"
"6299 South Bristol Parkway Culver City, CA 90230",33.982403,-118.392634,1,rooftop,6299,"Bristol Pkwy",,,"Culver City",CA,"Los Angeles County",90230,US,"Los Angeles"
"10455 S De Anza Blvd Cupertino, CA 95014",37.316414,-122.033549,1,rooftop,10455,"S De Anza Blvd",,,Cupertino,CA,"Santa Clara County",95014,US,"City of Cupertino"
"6835 Katella Ave Cypress, CA 90630",33.803921,-118.013149,1,rooftop,6835,"Katella Ave",,,Cypress,CA,"Orange County",90630,US,Orange
"5501 Ball Road Cypress, CA 90630",33.817353,-118.036051,1,rooftop,5501,"Ball Rd",,,Cypress,CA,"Orange County",90630,US,Orange
"135 Pierce St. Daly City, CA 94015",37.685857,-122.472713,1,range_interpolation,135,"Pierce St",,,"Daly City",CA,"San Mateo County",94015,US,"TIGER/Line® dataset from the US Census Bureau"
"133 Serramonte Ctr Daly City, CA 94015",37.669267,-122.475034,1,range_interpolation,133,"Serramonte Blvd",,,"Daly City",CA,"San Mateo County",94015,US,"TIGER/Line® dataset from the US Census Bureau"
"375 Gellert Blvd. Daly City, CA 94015",37.665404,-122.468201,1,rooftop,375,"Gellert Blvd",,,"Daly City",CA,"San Mateo County",94015,US,"San Mateo"
"32900 Pacific Coast Highway Dana Point, CA 92629",33.485508,-117.723804,0.82,nearest_rooftop_match,32880,"Pacific Coast Hw",,,"Dana Point",CA,"Orange County",92629,US,Orange
"32575 Golden Lantern St Dana Point, CA 92629",33.488832,-117.698328,1,range_interpolation,32575,"Golden Lantern St",,,"Dana Point",CA,"Orange County",92629,US,"TIGER/Line® dataset from the US Census Bureau"
"3420 Camino Tassajara Danville, CA 94506",37.798318,-121.918943,0.86,nearest_rooftop_match,3400,"Camino Tassajara Rd",,,Danville,CA,"Contra Costa County",94506,US,"Contra Costa"
"650 San Ramon Valley Blvd Danville, CA 94526",37.813583,-121.994836,1,rooftop,650,"San Ramon Valley Blvd",,,Danville,CA,"Contra Costa County",94526,US,"Contra Costa"
"4601 2nd St Davis, CA 95618",38.554357,-121.698483,1,rooftop,4601,"2nd St",,,Davis,CA,"Yolo County",95618,US,Yolo
"1550 E Covell Blvd Davis, CA 95616",38.560995,-121.731763,1,rooftop,1550,"E Covell Blvd",,,Davis,CA,"Yolo County",95616,US,Yolo
"1471 W Covell Blvd Davis, CA 95616",38.561555,-121.766338,1,rooftop,1471,"W Covell Blvd",,,Davis,CA,"Yolo County",95616,US,Yolo
"2662 Del Mar Heights Rd Del Mar, CA 92014",32.950113,-117.246212,1,rooftop,2662,"Del Mar Heights Rd",,,"Del Mar",CA,"San Diego County",92014,US,"San Diego Geographic Information Source - JPA"
"747 Grand Ave Diamond Bar, CA 91765",34.005738,-117.820707,0.9,range_interpolation,747,"Grand Ave",,,"Diamond Bar",CA,"Los Angeles County",91765,US,"TIGER/Line® dataset from the US Census Bureau"
"300 South Diamond Bar Boulevard Diamond Bar, CA 91765",34.019566,-117.808245,1,rooftop,300,"S Diamond Bar Blvd",,,"Diamond Bar",CA,"Los Angeles County",91765,US,"Los Angeles"
"14830 Highway 4 Discovery Bay, CA 94505",37.889811,-121.609711,0.6,street_center,,"State Rte 4",,,"Discovery Bay",CA,"Contra Costa County",94505,US,"TIGER/Line® dataset from the US Census Bureau"
"1057 N 1st St Dixon, CA 95620",38.455483,-121.823316,1,rooftop,1057,"N 1st St",,,Dixon,CA,"Solano County",95620,US,Solano
"8400 Firestone Blvd. Downey, CA 90241",33.938524,-118.131472,1,rooftop,8400,"Firestone Blvd",,,Downey,CA,"Los Angeles County",90241,US,"Los Angeles"
"7915 Florence Avenue Downey, CA 90240",33.954422,-118.131403,1,range_interpolation,7915,"Florence Ave",,,Downey,CA,"Los Angeles County",90240,US,"TIGER/Line® dataset from the US Census Bureau"
"8008 Firestone Boulevard Downey, CA 90241",33.941954,-118.137831,1,rooftop,8008,"Firestone Blvd",,,Downey,CA,"Los Angeles County",90241,US,"Los Angeles"
"1050 Huntington Dr Duarte, CA 91010",34.137514,-117.98307,1,rooftop,1050,"Huntington Dr",,,Duarte,CA,"Los Angeles County",91010,US,"Los Angeles"
"2315 Huntington Dr Duarte, CA 91010",34.140249,-117.954938,0.78,nearest_rooftop_match,2307,"E Huntington Dr",,,Duarte,CA,"Los Angeles County",91010,US,"Los Angeles"
"7200 Amador Plaza Rd Dublin, CA 94568",37.70667,-121.931852,1,rooftop,7200,"Amador Plaza Rd",,,Dublin,CA,"Alameda County",94568,US,Alameda
"2800 Dublin Blvd Dublin, CA 94568",37.702839,-121.853523,1,rooftop,2800,"Dublin Blvd",,,Dublin,CA,"Alameda County",94568,US,Alameda
"7201 Regional St Dublin, CA 94568",37.7052,-121.932745,1,rooftop,7201,"Regional St",,,Dublin,CA,"Alameda County",94568,US,Alameda
"1030 Colorado Blvd. Eagle Rock, CA 90041",34.137473,-118.188766,1,rooftop,1030,"Colorado Blvd",,,"Los Angeles",CA,"Los Angeles County",90041,US,"Los Angeles"
"1775 East Bayshore Road East Palo Alto, CA 94303",37.458601,-122.136814,1,range_interpolation,1775,"E Bayshore Rd",,,"East Palo Alto",CA,"San Mateo County",94303,US,"TIGER/Line® dataset from the US Census Bureau"
"12471 Limonite Ave Eastvale, CA 91752",33.975432,-117.555053,1,range_interpolation,12471,"Limonite Ave",,,Eastvale,CA,"Riverside County",91752,US,"TIGER/Line® dataset from the US Census Bureau"
"14220 Schleisman Rd Eastvale, CA 92880",33.960242,-117.593897,1,rooftop,14220,"Schleisman Rd",,,Eastvale,CA,"Riverside County",92880,US,Riverside
"250 Broadway El Cajon, CA 92021",32.809791,-116.959342,1,rooftop,250,Broadway,,,"El Cajon",CA,"San Diego County",92021,US,"San Diego Geographic Information Source - JPA"
"2911 Jamacha Rd El Cajon, CA 92019",32.738689,-116.93896,1,rooftop,2911,"Jamacha Rd",,,"El Cajon",CA,"San Diego County",92019,US,"San Diego Geographic Information Source - JPA"
"426 East Chase Avenue, Chase Avenue And Avocado Boulevard El Cajon, CA 92020",32.781054,-116.956903,1,rooftop,426,"E Chase Ave",,,"El Cajon",CA,"San Diego County",92020,US,"San Diego Geographic Information Source - JPA"
"1299 Broadway El Cajon, CA 92021",32.807367,-116.93657,1,rooftop,1299,Broadway,,,"El Cajon",CA,"San Diego County",92021,US,"San Diego Geographic Information Source - JPA"
"790 Jamacha Rd El Cajon, CA 92019",32.785688,-116.928564,1,rooftop,790,"Jamacha Rd",,,"El Cajon",CA,"San Diego County",92019,US,"San Diego Geographic Information Source - JPA"
"2760 Fletcher Pky El Cajon, CA 92020",32.801097,-117.003869,1,rooftop,2760,"Fletcher Pkwy",,,"El Cajon",CA,"San Diego County",92020,US,Sandoval
"572 Fletcher Pkwy El Cajon, CA 92020",32.808417,-116.969003,1,rooftop,572,"Fletcher Pkwy",,,"El Cajon",CA,"San Diego County",92020,US,Sandoval
"1745 S. Imperial Ave. El Centro, CA 92243",32.777789,-115.568871,1,rooftop,1745,"S Imperial Ave",,,"El Centro",CA,"Imperial County",92243,US,Imperial
"2295 N Imperial Ave El Centro, CA 92243",32.818455,-115.569736,1,range_interpolation,2295,"N Imperial Ave",,,"El Centro",CA,"Imperial County",92243,US,"TIGER/Line® dataset from the US Census Bureau"
"10650 San Pablo Ave El Cerrito, CA 94530",37.912676,-122.307974,1,rooftop,10650,"San Pablo Ave",,,"El Cerrito",CA,"Contra Costa County",94530,US,"Contra Costa"
"670 El Cerrito Plz El Cerrito, CA 94530",37.918024,-122.30248,0.33,place,,,,,"El Cerrito",CA,"Contra Costa County",94530,US,"TIGER/Line® dataset from the US Census Bureau"
"4400 Town Center Blvd El Dorado Hills, CA 95762",38.650083,-121.062391,1,rooftop,4400,"Town Center Blvd",,,"El Dorado Hills",CA,"El Dorado County",95762,US,"El Dorado"
"4330 Latrobe Rd El Dorado Hills, CA 95762",38.645617,-121.068601,0.66,nearest_rooftop_match,4400,"Latrobe Rd",,,"El Dorado Hills",CA,"El Dorado County",95762,US,"El Dorado"
"7505 Laguna Blvd Elk Grove, CA 95758",38.426326,-121.415476,1,rooftop,7505,"Laguna Blvd",,,"Elk Grove",CA,"Sacramento County",95758,US,"City of Elk Grove"
"8400 Bradshaw Rd.. Elk Grove, CA 95624",38.452179,-121.335614,1,rooftop,8400,"Bradshaw Rd",,,"Elk Grove",CA,"Sacramento County",95624,US,"City of Elk Grove"
"5040 Laguna Blvd Elk Grove, CA 95758",38.422183,-121.446721,1,rooftop,5040,"Laguna Blvd",,,"Elk Grove",CA,"Sacramento County",95758,US,"City of Elk Grove"
"8585 Elk Grove Blvd Elk Grove, CA 95624",38.410124,-121.385116,1,rooftop,8585,"Elk Grove Blvd",,,"Elk Grove",CA,"Sacramento County",95624,US,"City of Elk Grove"
"9285 Elk Grove Blvd Elk Grove, CA 95624",38.409397,-121.353799,1,rooftop,9285,"Elk Grove Blvd",,,"Elk Grove",CA,"Sacramento County",95624,US,"City of Elk Grove"
"11574 Lower Azusa Rd El Monte, CA 91732",34.090667,-118.015405,1,rooftop,11574,"Lower Azusa Rd",,,"El Monte",CA,"Los Angeles County",91732,US,"Los Angeles"
